iata,name,city,city_norm,country,continent,type,lat,lon
AAL,Aalborg Airport,Aalborg,aalborg,DK,EU,large_airport,57.094763,9.84993
AAR,Aarhus Airport,Aarhus,aarhus,DK,EU,large_airport,56.303331,10.618286
JEG,Aasiaat Airport,Aasiaat,aasiaat,GL,NA,medium_airport,68.721802,-52.784698
ABD,Abadan Ayatollah Jami International Airport,Abadan,abadan,IR,AS,large_airport,30.367887,48.230075
ABA,Abakan International Airport,Abakan,abakan,RU,AS,large_airport,53.740002,91.385002
YXX,Abbotsford International Airport,Abbotsford,abbotsford,CA,NA,medium_airport,49.025299,-122.361
AEH,Abeche Airport,Abeche,abeche,TD,AF,medium_airport,13.847,20.844299
ABZ,Aberdeen International Airport,Aberdeen,aberdeen,GB,EU,large_airport,57.2019,-2.19778
AHB,Abha International Airport,Abha,abha,SA,AS,large_airport,18.2404,42.656601
ABJ,Félix-Houphouët-Boigny International Airport,Abidjan,abidjan,CI,AF,large_airport,5.26139,-3.92629
ABI,Abilene Regional Airport,Abilene,abilene,US,NA,medium_airport,32.4113006592,-99.68190002440001
MYG,Mayaguana Airport,Abraham Bay Settlement,abraham bay settlement,BS,NA,medium_airport,22.379499,-73.013494
AUH,Zayed International Airport,Abu Dhabi,abu dhabi,AE,AS,large_airport,24.440966,54.649237
AEU,Abu Musa Island Airport,Abu Musa,abu musa,IR,AS,medium_airport,25.8757,55.033001
ABS,Abu Simbel Airport,Abu Simbel,abu simbel,EG,AF,large_airport,22.374402,31.609881
ABV,Nnamdi Azikiwe International Airport,Abuja,abuja,NG,AF,large_airport,9.00679,7.26317
ACA,General Juan N. Álvarez International Airport,Acapulco,acapulco,MX,NA,large_airport,16.757126,-99.753113
ACC,Kotoka International Airport,Accra,accra,GH,AF,large_airport,5.605189800262451,-0.16678600013256073
DMM,King Fahd International Airport,Ad Dammam,ad dammam,SA,AS,large_airport,26.4691,49.798209
ADK,Adak Airport,Adak,adak,US,NA,medium_airport,51.883564,-176.642783
ADD,Addis Ababa Bole International Airport,Addis Ababa,addis ababa,ET,AF,large_airport,8.97789,38.799301
ADL,Adelaide International Airport,Adelaide,adelaide,AU,OC,large_airport,-34.947512,138.533393
ADE,Aden International Airport,Aden,aden,YE,AS,large_airport,12.829564,45.029976
ADF,Adıyaman Airport,Adıyaman,adıyaman,TR,AS,medium_airport,37.7314,38.468899
AZR,Touat-Cheikh Sidi Mohamed Belkebir Airport,Adrar,adrar,DZ,AF,medium_airport,27.837601,-0.186414
AGA,Al Massira Airport,Agadir (Temsia),agadir (temsia),MA,AF,large_airport,30.322478,-9.412003
IXA,Agartala - Maharaja Bir Bikram Airport,Agartala,agartala,IN,AS,medium_airport,23.886999,91.240402
AGX,Agatti Airport,Agatti,agatti,IN,AS,medium_airport,10.8237,72.176003
LUG,Lugano Airport,Agno,agno,CH,EU,medium_airport,46.004299,8.91058
AJI,Ağrı Airport,Ağrı,agrı,TR,AS,medium_airport,39.655642,43.025742
BQN,Rafael Hernández International Airport,Aguadilla,aguadilla,PR,NA,medium_airport,18.4949,-67.129402
AGU,Aguascalientes International Airport,Aguascalientes,aguascalientes,MX,NA,large_airport,21.699589,-102.318372
AHE,Ahe Airport,Ahe Atoll,ahe atoll,PF,OC,medium_airport,-14.428099632263184,-146.2570037841797
OUD,Oujda Angads Airport,Ahl Angad,ahl angad,MA,AF,large_airport,34.789558,-1.926041
AMD,Sardar Vallabh Patel International Airport,Ahmedabad,ahmedabad,IN,AS,large_airport,23.0772,72.634697
AWZ,Qasem Soleimani International Airport,Ahvaz,ahvaz,IR,AS,large_airport,31.3364,48.763789
AJL,Lengpui Airport,Aizawl (Lengpui),aizawl (lengpui),IN,AS,medium_airport,23.840599,92.619698
AJA,Ajaccio Napoléon Bonaparte airport,Ajaccio,ajaccio,FR,EU,medium_airport,41.923599,8.80292
KQH,Kishangarh Airport Ajmer,Ajmer (Kishangarh),ajmer (kishangarh),IN,AS,medium_airport,26.591007,74.812956
AXT,Akita Airport,Akita,akita,JP,AS,medium_airport,39.615601,140.218994
CAK,Akron Canton Regional Airport,Akron,akron,US,NA,medium_airport,40.916099548339844,-81.44219970703125
AKU,Aksu Hongqipo Airport,Aksu (Onsu),aksu (onsu),CN,AS,medium_airport,41.262501,80.291702
SCO,Aktau International Airport,Aktau,aktau,KZ,AS,large_airport,43.860093,51.09086
AKX,Aktobe International Airport,Aktobe,aktobe,KZ,AS,large_airport,50.248116,57.204144
AKR,Akure Airport,Akure,akure,NG,AF,medium_airport,7.246739864349365,5.3010101318359375
AEY,Akureyri International Airport,Akureyri,akureyri,IS,EU,large_airport,65.656573,-18.072018
NDR,Nador Al Aaroui International Airport,Al Aaroui,al aaroui,MA,AF,large_airport,34.9888,-3.02821
AAN,Al Ain International Airport,Al Ain,al ain,AE,AS,large_airport,24.2617,55.6092
LAQ,Al Abraq International Airport,Al Albraq,al albraq,LY,AF,large_airport,32.789036,21.954864
AAY,Al Ghaydah International Airport,Al Ghaydah,al ghaydah,YE,AS,medium_airport,16.193341,52.174186
SPX,Sphinx International Airport,Al Jiza,al jiza,EG,AF,large_airport,30.108179,30.895728
EJH,Al Wajh Domestic Airport,Al Wajh,al wajh,SA,AS,medium_airport,26.198601,36.476398
ABT,King Saud Bin Abdulaziz (Al Baha) Airport,Al-Baha,al-baha,SA,AS,medium_airport,20.298506,41.636153
AJF,Al-Jawf International Airport,Al-Jawf,al-jawf,SA,AS,large_airport,29.783301,40.100905
ULH,Al-Ula International Airport,Al-Ula,al-ula,SA,AS,medium_airport,26.483634,38.117048
ALS,San Luis Valley Regional Airport/Bergman Field,Alamosa,alamosa,US,NA,medium_airport,37.434898,-105.866997
VIT,Vitoria Airport,Alava,alava,ES,EU,medium_airport,42.882801,-2.72447
ALB,Albany International Airport,Albany,albany,US,NA,large_airport,42.748299,-73.801697
PAC,Marcos A. Gelabert International Airport,Albrook,albrook,PA,NA,medium_airport,8.97334,-79.555603
ABQ,Albuquerque International Sunport,Albuquerque,albuquerque,US,NA,large_airport,35.039976,-106.608925
WKK,Aleknagik / New Airport,Aleknagik,aleknagik,US,NA,medium_airport,59.2826004028,-158.617996216
ALP,Aleppo International Airport,Aleppo,aleppo,SY,AS,large_airport,36.181262,37.226869
AES,Ålesund Airport,Ålesund,alesund,NO,EU,large_airport,62.560443,6.110845
AEX,Alexandria International Airport,Alexandria,alexandria,US,NA,medium_airport,31.325828,-92.546702
AXD,Alexandroupoli Democritus Airport,Alexandroupolis,alexandroupolis,GR,EU,medium_airport,40.8559,25.956301
AHO,Alghero-Fertilia Airport,Alghero,alghero,IT,EU,medium_airport,40.632099,8.29077
ALG,Houari Boumediene Airport,Algiers,algiers,DZ,AF,large_airport,36.693886,3.214531
ALC,Alicante-Elche Miguel Hernández Airport,Alicante,alicante,ES,EU,large_airport,38.2822,-0.558156
ASP,Alice Springs Airport,Alice Springs,alice springs,AU,OC,medium_airport,-23.806588,133.903427
IXD,Prayagraj Airport,Allahabad,allahabad,IN,AS,medium_airport,25.4401,81.733902
ABE,Lehigh Valley International Airport,Allentown/Bethlehem,allentown/bethlehem,US,NA,medium_airport,40.651773,-75.442797
AIA,Alliance Municipal Airport,Alliance,alliance,US,NA,medium_airport,42.052543,-102.803965
ALA,Almaty International Airport,Almaty,almaty,KZ,AS,large_airport,43.354267,77.042828
LEI,Almería Airport,Almería,almeria,ES,EU,medium_airport,36.843899,-2.3701
IUE,Niue International Airport,Alofi,alofi,NU,OC,medium_airport,-19.080109,-169.923493
AOR,Sultan Abdul Halim Airport,Alor Satar,alor satar,MY,AS,medium_airport,6.189670085906982,100.39800262451172
APN,Alpena County Regional Airport,Alpena,alpena,US,NA,medium_airport,45.0780983,-83.56030273
SSJ,"Sandnessjøen Airport, Stokka",Alstahaug,alstahaug,NO,EU,medium_airport,65.956802,12.4689
ALF,Alta Airport,Alta,alta,NO,EU,medium_airport,69.976097,23.3717
AFL,Piloto Osvaldo Marques Dias Airport,Alta Floresta,alta floresta,BR,SA,medium_airport,-9.866389,-56.106298
LTI,Altai Airport,Altai,altai,MN,AS,medium_airport,46.376399993896484,96.22109985351562
ATM,Altamira Interstate Airport,Altamira,altamira,BR,SA,medium_airport,-3.253144,-52.253938
AAT,Altay Xuedu Airport,Altay,altay,CN,AS,medium_airport,47.749886,88.085808
AOO,Altoona Blair County Airport,Altoona,altoona,US,NA,medium_airport,40.296398,-78.32
TKN,Tokunoshima Airport,Amagi,amagi,JP,AS,medium_airport,27.836382,128.881356
ASJ,Amami Airport,Amami,amami,JP,AS,medium_airport,28.430599212646484,129.71299743652344
AMA,Rick Husband Amarillo International Airport,Amarillo,amarillo,US,NA,medium_airport,35.217857,-101.706444
AHA,Maa Mahamaya Airport,Ambikapur,ambikapur,IN,AS,medium_airport,22.98753,83.19612
ABL,Ambler Airport,Ambler,ambler,US,NA,medium_airport,67.105529,-157.855339
AMQ,Pattimura International Airport,Ambon,ambon,ID,AS,large_airport,-3.71026,128.089005
ASV,Amboseli Airport,Amboseli National Park,amboseli national park,KE,AF,medium_airport,-2.645050048828125,37.25310134887695
AMV,Amderma Airport,Amderma,amderma,RU,AS,medium_airport,69.76329803466797,61.556400299072266
ADJ,Marka International (Amman Civil) Airport,Amman,amman,JO,AS,large_airport,31.9727,35.9916
ATQ,Sri Guru Ram Das Ji International Airport,Amritsar,amritsar,IN,AS,large_airport,31.7096,74.797302
AMS,Amsterdam Airport Schiphol,Amsterdam,amsterdam,NL,EU,large_airport,52.308601,4.76389
AAA,Anaa Airport,Anaa,anaa,PF,OC,medium_airport,-17.3526,-145.509995
DYR,Ugolny Yuri Ryktheu Airport,Anadyr,anadyr,RU,AS,medium_airport,64.734902,177.740997
YAA,Anahim Lake Airport,Anahim Lake,anahim lake,CA,NA,medium_airport,52.451501,-125.303776
AKP,Anaktuvuk Pass Airport,Anaktuvuk Pass,anaktuvuk pass,US,NA,medium_airport,68.133598,-151.742996
ANC,Ted Stevens Anchorage International Airport,Anchorage,anchorage,US,NA,large_airport,61.179004,-149.992561
ANX,"Andøya Airport, Andenes",Andenes,andenes,NO,EU,medium_airport,69.295193,16.139379
AZN,Andijan International Airport,Andijan,andijan,UZ,AS,large_airport,40.727699,72.293999
TZN,Congo Town Airport,Andros,andros,BS,NA,medium_airport,24.158701,-77.589798
SAQ,San Andros Airport,Andros Island,andros island,BS,NA,medium_airport,25.053800582885742,-78.04900360107422
ASD,Andros Town Airport,Andros Town,andros town,BS,NA,medium_airport,24.697901,-77.795601
AGH,Ängelholm-Helsingborg Airport,Ängelholm,angelholm,SE,EU,medium_airport,56.29610061645508,12.847100257873535
ANI,Aniak Airport,Aniak,aniak,US,NA,medium_airport,61.581600189208984,-159.54299926757812
ESB,Esenboğa International Airport,Ankara,ankara,TR,AS,large_airport,40.128101,32.995098
AAE,Annaba Rabah Bitat Airport,Annaba,annaba,DZ,AF,large_airport,36.826781,7.81334
NCY,Annecy Meythet airport,Annecy,annecy,FR,EU,medium_airport,45.928947,6.0987
AQG,Anqing Tianzhushan Airport / Anqing North Air Base,Anqing,anqing,CN,AS,medium_airport,30.582199,117.050003
AOG,Anshan Teng'ao Airport / Anshan Air Base,Anshan,anshan,CN,AS,medium_airport,41.105301,122.853996
AVA,Anshun Huangguoshu Airport,Anshun (Xixiu),anshun (xixiu),CN,AS,medium_airport,26.260556,105.873333
HTY,Hatay Airport,Antakya,antakya,TR,AS,medium_airport,36.362778,36.282223
AYT,Antalya International Airport,Antalya,antalya,TR,AS,large_airport,36.898701,30.800501
TNR,Ivato International Airport,Antananarivo,antananarivo,MG,AF,large_airport,-18.7969,47.478802
DIE,Arrachart Airport,Antisiranana,antisiranana,MG,AF,medium_airport,-12.3494,49.291698
ANF,Andrés Sabella Gálvez International Airport,Antofagasta,antofagasta,CL,SA,large_airport,-23.445274,-70.445232
ANR,Antwerp International Airport (Deurne),Antwerp,antwerp,BE,EU,medium_airport,51.190667,4.463153
ANV,Anvik Airport,Anvik,anvik,US,NA,medium_airport,62.646702,-160.190994
AOJ,Aomori Airport,Aomori,aomori,JP,AS,large_airport,40.733777,140.689477
PWE,Pevek Airport,Apapelgino,apapelgino,RU,AS,medium_airport,69.783302,170.597
APW,Faleolo International Airport,Apia,apia,WS,OC,large_airport,-13.83,-172.007996
ATW,Appleton International Airport,Appleton,appleton,US,NA,medium_airport,44.258515,-88.519
AQJ,King Hussein International Airport,Aqaba,aqaba,JO,AS,large_airport,29.611601,35.018101
AJU,Aracaju - Santa Maria Airport,Aracaju,aracaju,BR,SA,medium_airport,-10.98394,-37.072873
ARU,Araçatuba Airport,Araçatuba,aracatuba,BR,SA,medium_airport,-21.141479,-50.424575
ARW,Arad International Airport,Arad,arad,RO,EU,medium_airport,46.176136,21.264322
AUX,Araguaína Airport,Araguaína,araguaina,BR,SA,medium_airport,-7.22787,-48.240501
RAE,Arar Domestic Airport,Arar,arar,SA,AS,medium_airport,30.906600952148438,41.13819885253906
AQA,Araraquara Airport,Araraquara,araraquara,BR,SA,medium_airport,-21.812,-48.132999
AAX,Romeu Zema Airport,Araxá,araxa,BR,SA,medium_airport,-19.5632,-46.9604
AMH,Arba Minch Airport,Arba Minch,arba minch,ET,AF,medium_airport,6.03939,37.5905
EBL,Erbil International Airport,Arbil,arbil,IQ,AS,large_airport,36.236047,43.946615
ACV,California Redwood Coast-Humboldt County Airport,Arcata/Eureka,arcata/eureka,US,NA,medium_airport,40.978101,-124.109
ARH,Talagi Airport,Archangelsk,archangelsk,RU,EU,medium_airport,64.60030364990234,40.71670150756836
ARC,Arctic Village Airport,Arctic Village,arctic village,US,NA,medium_airport,68.1147,-145.578995
ADU,Ardabil Airport,Ardabil,ardabil,IR,AS,medium_airport,38.3256988525,48.4244003296
AQP,Rodríguez Ballón International Airport,Arequipa,arequipa,PE,SA,large_airport,-16.340786,-71.569485
ARI,Chacalluta International Airport,Arica,arica,CL,SA,medium_airport,-18.348499,-70.338699
AXM,El Eden Airport,Armenia,armenia,CO,SA,medium_airport,4.45278,-75.7664
ARM,Armidale Airport,Armidale,armidale,AU,OC,medium_airport,-30.528099060099997,151.617004395
MOL,"Molde Airport, Årø",Årø,arø,NO,EU,medium_airport,62.744701,7.2625
ATC,Arthur's Town Airport,Arthur's Town,arthur's town,BS,NA,medium_airport,24.6294,-75.673797
VVO,Vladivostok International Airport,Artyom,artyom,RU,AS,large_airport,43.396256,132.148155
RUA,Arua Airport,Arua,arua,UG,AF,medium_airport,3.049152,30.911714
JRO,Kilimanjaro International Airport,Arusha,arusha,TZ,AF,large_airport,-3.427049,37.07353
AVK,Arvaikheer Airport,Arvaikheer,arvaikheer,MN,AS,medium_airport,46.250301361083984,102.802001953125
AJR,Arvidsjaur Airport,Arvidsjaur,arvidsjaur,SE,EU,medium_airport,65.59030151367188,19.28190040588379
YIE,Arxan Yi'ershi Airport,Arxan,arxan,CN,AS,medium_airport,47.3106,119.9117
ABB,Asaba International Airport,Asaba,asaba,NG,AF,large_airport,6.204167,6.665278
AVL,Asheville Regional Airport,Asheville,asheville,US,NA,medium_airport,35.435488,-82.541853
ASB,Ashgabat International Airport,Ashgabat,ashgabat,TM,AS,large_airport,37.986801,58.361
ASM,Asmara International Airport,Asmara,asmara,ER,AF,large_airport,15.2919,38.910702
ASO,Asosa Airport,Asosa,asosa,ET,AF,medium_airport,10.018500328063965,34.586299896240234
ASE,Aspen-Pitkin County Airport (Sardy Field),Aspen,aspen,US,NA,medium_airport,39.223202,-106.869003
NQZ,Nursultan Nazarbayev International Airport,Astana,astana,KZ,AS,large_airport,51.027035,71.467094
ASF,Astrakhan Narimanovo Boris M. Kustodiev International Airport,Astrakhan,astrakhan,RU,AS,large_airport,46.282843,48.010511
ASU,Silvio Pettirossi International Airport,Asunción,asuncion,PY,SA,large_airport,-25.240156,-57.519227
ASW,Aswan International Airport,Aswan,aswan,EG,AF,large_airport,23.961075,32.820382
ATZ,Asyut International Airport,Asyut,asyut,EG,AF,large_airport,27.045962,31.01276
ATR,Atar International Airport,Atar,atar,MR,AF,large_airport,20.505823,-13.043744
ATH,Athens Eleftherios Venizelos International Airport,Athens,athens,GR,EU,large_airport,37.936401,23.9445
ATL,Hartsfield Jackson Atlanta International Airport,Atlanta,atlanta,US,NA,large_airport,33.6367,-84.428101
ACY,Atlantic City International Airport,Atlantic City,atlantic city,US,NA,medium_airport,39.456201,-74.577511
ATK,Atqasuk Edward Burnell Sr Memorial Airport,Atqasuk,atqasuk,US,NA,medium_airport,70.46704,-157.436013
GUW,Atyrau International Airport,Atyrau,atyrau,KZ,AS,large_airport,47.121318,51.820343
AKL,Auckland International Airport,Auckland,auckland,NZ,OC,large_airport,-37.01199,174.786331
AUG,Augusta State Airport,Augusta,augusta,US,NA,medium_airport,44.320598602299995,-69.7973022461
IXU,Aurangabad Airport,Aurangabad,aurangabad,IN,AS,medium_airport,19.862875,75.396312
AUR,Aurillac airport,Aurillac,aurillac,FR,EU,medium_airport,44.891399,2.42194
AUS,Austin Bergstrom International Airport,Austin,austin,US,NA,large_airport,30.197535,-97.662015
RAR,Rarotonga International Airport,Avarua,avarua,CK,OC,large_airport,-21.2027,-159.806
AVN,Avignon Caumont airport,Avignon,avignon,FR,EU,medium_airport,43.907299,4.90183
KAT,Kaitaia Airport,Awanui,awanui,NZ,OC,medium_airport,-35.069837,173.287053
AXU,Axum Airport,Axum,axum,ET,AF,medium_airport,14.1468,38.7728
AYP,Air Force Colonel Alfredo Mendivil Duarte Airport,Ayacucho,ayacucho,PE,SA,medium_airport,-13.1548,-74.204399
GDQ,Gondar Airport,Azezo,azezo,ET,AF,medium_airport,12.5199,37.433998
ROR,Roman Tmetuchl International Airport,Babelthuap Island,babelthuap island,PW,OC,large_airport,7.366965,134.544085
BCM,Bacău George Enescu International  Airport,Bacău,bacau,RO,EU,large_airport,46.5219,26.910299
BCD,Bacolod-Silay International Airport,Bacolod City,bacolod city,PH,AS,large_airport,10.776237,123.018879
BJZ,Badajoz Airport,Badajoz,badajoz,ES,EU,medium_airport,38.8913,-6.82133
BGW,Baghdad International Airport / New Al Muthana Air Base,Baghdad,baghdad,IQ,AS,large_airport,33.262501,44.2346
BAG,Loakan Airport,Baguio,baguio,PH,AS,medium_airport,16.375034,120.619949
BHV,Bahawalpur Airport,Bahawalpur,bahawalpur,PK,AS,medium_airport,29.348100662231445,71.71800231933594
BHI,Comandante Espora Airport,Bahía Blanca,bahia blanca,AR,SA,medium_airport,-38.725,-62.1693
BSC,José Celestino Mutis Airport,Bahía Solano,bahia solano,CO,SA,medium_airport,6.20292,-77.3947
BJR,Bahir Dar Airport,Bahir Dar,bahir dar,ET,AF,medium_airport,11.6081,37.321602
DBC,Baicheng Chang'an Airport,Baicheng,baicheng,CN,AS,medium_airport,45.505278,123.019722
YBC,Baie-Comeau Airport,Baie-Comeau,baie-comeau,CA,NA,medium_airport,49.1325,-68.204399
BXY,Baikonur Krayniy International Airport,Baikonur,baikonur,KZ,AS,large_airport,45.621994,63.210773
VMU,Baimuru Airport,Baimuru,baimuru,PG,OC,medium_airport,-7.496955,144.821756
AEB,Baise (Bose) Bama Airport,Baise (Tianyang),baise (tianyang),CN,AS,medium_airport,23.7206,106.959999
NBS,Changbaishan Airport,Baishan,baishan,CN,AS,medium_airport,42.066944,127.602222
YBK,Baker Lake Airport,Baker Lake,baker lake,CA,NA,medium_airport,64.29889678960001,-96.077796936
BFL,Meadows Field,Bakersfield,bakersfield,US,NA,medium_airport,35.433601,-119.056999
GYD,Heydar Aliyev International Airport,Baku,baku,AZ,AS,large_airport,40.47278,50.050931
BWO,Balakovo Airport,Balakovo,balakovo,RU,AS,medium_airport,51.858299,47.745602
BSL,EuroAirport Basel–Mulhouse–Freiburg,Bâle / Mulhouse,bale / mulhouse,FR,EU,large_airport,47.60068,7.521117
TRE,Tiree Airport,"Balemartine, Argyll and Bute","balemartine, argyll and bute",GB,EU,medium_airport,56.499199,-6.86917
BPN,Sultan Aji Muhammad Sulaiman Sepinggan International Airport,Balikpapan,balikpapan,ID,AS,large_airport,-1.268342,116.89452
OPU,Balimo Airport,Balimo,balimo,PG,OC,medium_airport,-8.05000019073,142.932998657
BEB,Benbecula Airport,Balivanich,balivanich,GB,EU,medium_airport,57.481098,-7.36278
BZI,Balıkesir Airport,Balıkesir,balıkesir,TR,AS,medium_airport,39.619301,27.926001
BKN,Balkanabat International Airport,Balkanabat,balkanabat,TM,AS,large_airport,39.681052,54.206008
BXH,Balkhash Airport,Balkhash,balkhash,KZ,AS,medium_airport,46.894246,75.004533
BNK,Ballina Byron Gateway Airport,Ballina,ballina,AU,OC,medium_airport,-28.833236,153.561471
BBA,Balmaceda Airport,Balmaceda,balmaceda,CL,SA,medium_airport,-45.915968,-71.689499
BWI,Baltimore/Washington International Thurgood Marshall Airport,Baltimore,baltimore,US,NA,large_airport,39.1754,-76.668297
BXR,Bam Airport,Bam,bam,IR,AS,medium_airport,29.0842,58.450001
BKO,Modibo Keita International Airport,Bamako,bamako,ML,AF,large_airport,12.5335,-7.94994
BTJ,Sultan Iskandar Muda International Airport,Banda Aceh,banda aceh,ID,AS,large_airport,5.525087,95.41997
BND,Bandar Abbas International Airport,Bandar Abbas,bandar abbas,IR,AS,large_airport,27.2183,56.3778
TKG,Radin Inten II International Airport,Bandar Lampung,bandar lampung,ID,AS,medium_airport,-5.246803,105.182531
BDH,Bandar Lengeh International Airport,Bandar Lengeh,bandar lengeh,IR,AS,medium_airport,26.532283,54.82484
BWN,Brunei International Airport,Bandar Seri Begawan,bandar seri begawan,BN,AS,large_airport,4.9442,114.928001
FDU,Bandundu Airport,Bandundu,bandundu,CD,AF,medium_airport,-3.31132,17.381701
BDO,Husein Sastranegara International Airport,Bandung,bandung,ID,AS,medium_airport,-6.90063,107.575996
BPX,Qamdo Bangda Airport,Bangda,bangda,CN,AS,medium_airport,30.553600311279297,97.1082992553711
BKK,Suvarnabhumi Airport,Bangkok,bangkok,TH,AS,large_airport,13.6811,100.747002
BGR,Bangor International Airport,Bangor,bangor,US,NA,medium_airport,44.806364,-68.826668
BGF,Bangui M'Poko International Airport,Bangui,bangui,CF,AF,large_airport,4.39848,18.518801
BDJ,Syamsudin Noor International Airport,Banjarbaru,banjarbaru,ID,AS,large_airport,-3.440112,114.761209
BSD,Baoshan Yunrui Airport,Baoshan (Longyang),baoshan (longyang),CN,AS,medium_airport,25.053301,99.168297
TCZ,Tengchong Tuofeng Airport,Baoshan (Tengchong),baoshan (tengchong),CN,AS,medium_airport,24.938056,98.485833
BAV,Baotou Donghe International Airport,Baotou,baotou,CN,AS,large_airport,40.560001,109.997002
BCA,Gustavo Rizo Airport,Baracoa,baracoa,CU,NA,medium_airport,20.365299224853516,-74.5062026977539
BRX,Maria Montez International Airport,Barahona,barahona,DO,NA,medium_airport,18.25149917602539,-71.12039947509766
BCI,Barcaldine Airport,Barcaldine,barcaldine,AU,OC,medium_airport,-23.566268,145.302086
BCN,Josep Tarradellas Barcelona-El Prat Airport,Barcelona,barcelona,ES,EU,large_airport,41.2971,2.07846
BRI,Bari Karol Wojtyła International Airport,Bari,bari,IT,EU,large_airport,41.138901,16.760599
BNS,Barinas Airport,Barinas,barinas,VE,SA,medium_airport,8.615,-70.214167
BBN,Bario Airport,Bario,bario,MY,AS,medium_airport,3.734648,115.478548
BZL,Barisal Airport,Barisal,barisal,BD,AS,medium_airport,22.801001,90.301201
BAX,Barnaul Gherman Titov International Airport,Barnaul,barnaul,RU,AS,large_airport,53.361285,83.539701
BRM,Jacinto Lara International Airport,Barquisimeto,barquisimeto,VE,SA,large_airport,10.042747,-69.35862
EJA,Yariguíes Airport,Barrancabermeja,barrancabermeja,CO,SA,medium_airport,7.02433,-73.8068
BAQ,Ernesto Cortissoz International Airport,Barranquilla,barranquilla,CO,SA,large_airport,10.8896,-74.7808
YLK,Barrie-Lake Simcoe Regional Airport,Barrie,barrie,CA,NA,medium_airport,44.485056,-79.554663
BSO,Basco Airport,Basco,basco,PH,AS,medium_airport,20.4513,121.980003
BSR,Basra International Airport,Basra,basra,IQ,AS,large_airport,30.549101,47.662102
SKB,Robert L. Bradshaw International Airport,Basseterre,basseterre,KN,NA,large_airport,17.310845,-62.719117
BIA,Bastia-Poretta International airport,Bastia,bastia,FR,EU,large_airport,42.5527,9.48373
BSG,Bata International Airport,Bata,bata,GQ,AF,large_airport,1.90547,9.80568
BTH,Hang Nadim International Airport,Batam,batam,ID,AS,large_airport,1.12103,104.119003
BHS,Bathurst Airport,Bathurst,bathurst,AU,OC,medium_airport,-33.406817,149.651161
BAL,Batman Airport,Batman,batman,TR,AS,medium_airport,37.929001,41.1166
BLJ,Batna Mostefa Ben Boulaid Airport,Batna,batna,DZ,AF,large_airport,35.752102,6.30859
BTR,Baton Rouge Metropolitan Airport,Baton Rouge,baton rouge,US,NA,medium_airport,30.533199,-91.149597
BJF,Båtsfjord Airport,Båtsfjord,batsfjord,NO,EU,medium_airport,70.60025,29.692612
BBM,Battambang Airport,Battambang,battambang,KH,AS,medium_airport,13.0956,103.223999
BTC,Batticaloa International Airport,Batticaloa,batticaloa,LK,AS,medium_airport,7.705073,81.677163
BUS,Alexander Kartveli Batumi International Airport,Batumi,batumi,GE,AS,large_airport,41.60939,41.600315
BCH,Baucau Airport,Baucau,baucau,TL,AS,medium_airport,-8.486479,126.399981
BCU,Sir Abubakar Tafawa Balewa Bauchi State International Airport,Bauchi,bauchi,NG,AF,large_airport,10.482833,9.744
JTC,Bauru/Arealva–Moussa Nakhal Tobias State Airport,Bauru,bauru,BR,SA,medium_airport,-22.160755,-49.070325
BYM,Carlos Manuel de Cespedes Airport,Bayamo,bayamo,CU,NA,medium_airport,20.3964,-76.621399
AXF,Alxa Left Banner Bayanhot Airport,Bayanhot,bayanhot,CN,AS,medium_airport,38.748317,105.58416
BYN,Bayankhongor Airport,Bayankhongor,bayankhongor,MN,AS,medium_airport,46.1633,100.704002
RLK,Bayannur Tianjitai Airport,Bayannur,bayannur,CN,AS,medium_airport,40.926358,107.74093
BZX,Bazhong Enyang Airport,Bazhong,bazhong,CN,AS,medium_airport,31.73842,106.644872
BPT,Jack Brooks Regional Airport,Beaumont/Port Arthur,beaumont/port arthur,US,NA,medium_airport,29.9508,-94.020699
BVA,Beauvais-Tillé airport,Beauvais,beauvais,FR,EU,large_airport,49.454399,2.11278
BKW,Raleigh County Memorial Airport,Beaver,beaver,US,NA,medium_airport,37.7873,-81.124199
CBH,Béchar Boudghene Ben Ali Lotfi Airport,Béchar,bechar,DZ,AF,medium_airport,31.645700454711914,-2.269860029220581
BED,Laurence G Hanscom Field,Bedford,bedford,US,NA,medium_airport,42.470001,-71.289001
BEU,Bedourie Airport,Bedourie,bedourie,AU,OC,medium_airport,-24.3461,139.460007
EIS,Terrance B. Lettsome International Airport,Beef Island,beef island,VG,NA,large_airport,18.445492,-64.541707
BHY,Beihai Fucheng Airport,Beihai,beihai,CN,AS,medium_airport,21.538659,109.293683
PEK,Beijing Capital International Airport,Beijing,beijing,CN,AS,large_airport,40.077349,116.596702
BEW,Beira International Airport,Beira,beira,MZ,AF,large_airport,-19.7964,34.9076
BEY,Beirut Rafic Hariri International Airport,Beirut,beirut,LB,AS,large_airport,33.819833,35.487443
BJA,Soummam–Abane Ramdane Airport,Béjaïa,bejaia,DZ,AF,large_airport,36.712547,5.069909
BEL,Val de Cans/Júlio Cezar Ribeiro International Airport,Belém,belem,BR,SA,large_airport,-1.379279,-48.476207
BFS,Belfast International Airport,Belfast,belfast,GB,EU,large_airport,54.6575012207,-6.2158298492399995
IXG,Belagavi Airport,Belgaum,belgaum,IN,AS,medium_airport,15.8593,74.618301
EGO,Belgorod International Airport,Belgorod,belgorod,RU,EU,medium_airport,50.643798828125,36.5900993347168
BEG,Belgrade Nikola Tesla Airport,Belgrade,belgrade,RS,EU,large_airport,44.818401,20.309099
BZE,Philip S. W. Goldson International Airport,Belize City,belize city,BZ,NA,large_airport,17.539951,-88.303556
ZEL,Bella Bella (Campbell Island) Airport,Bella Bella,bella bella,CA,NA,medium_airport,52.185001,-128.156994
QBC,Bella Coola Airport,Bella Coola,bella coola,CA,NA,medium_airport,52.387501,-126.596001
BLV,Scott AFB/Midamerica Airport,Belleville,belleville,US,NA,medium_airport,38.5452,-89.835197
BLI,Bellingham International Airport,Bellingham,bellingham,US,NA,medium_airport,48.79280090332031,-122.53800201416016
CNF,Tancredo Neves International Airport,Belo Horizonte,belo horizonte,BR,SA,large_airport,-19.63571,-43.966928
BLR,Kempegowda International Airport Bengaluru,Bengaluru,bengaluru,IN,AS,large_airport,13.1979,77.706299
BFY,Bengbu Tenghu Airport,Bengbu,bengbu,CN,AS,medium_airport,33.166389,117.058333
BKS,Fatmawati Soekarno Airport,Bengkulu,bengkulu,ID,AS,medium_airport,-3.8637,102.338997
BNI,Benin Airport,Benin,benin,NG,AF,medium_airport,6.316979885101318,5.5995001792907715
BEN,Benina International Airport,Benina,benina,LY,AF,large_airport,32.096802,20.269501
BQU,J F Mitchell Airport,Bequia,bequia,VC,NA,medium_airport,12.9884,-61.262001
BBO,Berbera Airport,Berbera,berbera,SO,AF,medium_airport,10.385035,44.936723
BGO,"Bergen Airport, Flesland",Bergen,bergen,NO,EU,large_airport,60.2934,5.21814
EGC,Bergerac Dordogne-Périgord airport,Bergerac,bergerac,FR,EU,medium_airport,44.825298,0.518611
KNO,Kualanamu International Airport,Beringin,beringin,ID,AS,large_airport,3.637847,98.870566
BVG,Berlevåg Airport,Berlevåg,berlevag,NO,EU,medium_airport,70.871517,29.034097
BER,Berlin Brandenburg Airport,Berlin,berlin,DE,EU,large_airport,52.361738,13.502341
BRN,Bern Airport,Bern,bern,CH,EU,medium_airport,46.912736,7.498819
BPY,Besalampy Airport,Besalampy,besalampy,MG,AF,medium_airport,-16.74453,44.482484
OGZ,Vladikavkaz Beslan International Airport,Beslan,beslan,RU,EU,medium_airport,43.205101,44.606602
BET,Bethel Airport,Bethel,bethel,US,NA,medium_airport,60.77980042,-161.8379974
BZR,Béziers Vias airport,Béziers,beziers,FR,EU,medium_airport,43.323502,3.3539
BHU,Bhavnagar Airport,Bhavnagar,bhavnagar,IN,AS,medium_airport,21.752199173,72.1852035522
BHO,Raja Bhoj International Airport,Bhopal,bhopal,IN,AS,large_airport,23.2875,77.337402
BBI,Biju Patnaik International Airport,Bhubaneswar,bhubaneswar,IN,AS,large_airport,20.251021,85.814747
BHJ,Bhuj Airport,Bhuj,bhuj,IN,AS,medium_airport,23.2877998352,69.6701965332
KUU,Kullu Manali Airport,Bhuntar,bhuntar,IN,AS,medium_airport,31.876699,77.154404
BIK,Frans Kaisiepo Airport,Biak,biak,ID,AS,medium_airport,-1.19002,136.108002
BIQ,Biarritz Pays Basque airport,Biarritz,biarritz,FR,EU,medium_airport,43.468372,-1.523223
BFJ,Bijie Feixiong Airport,Bijie,bijie,CN,AS,medium_airport,27.267066,105.472097
PAB,Bilaspur Airport,Bilaspur,bilaspur,IN,AS,medium_airport,21.9884,82.111
BIO,Bilbao Airport,Bilbao,bilbao,ES,AF,large_airport,43.301102,-2.91061
BIL,Billings Logan International Airport,Billings,billings,US,NA,medium_airport,45.808932,-108.541242
BLL,Billund Airport,Billund,billund,DK,EU,large_airport,55.740335,9.157019
THG,Thangool Airport,Biloela,biloela,AU,OC,medium_airport,-24.494863,150.577967
UGU,Bilorai Airport,Bilogai,bilogai,ID,AS,medium_airport,-3.739503,137.031183
BMU,Sultan Muhammad Salahuddin Airport,Bima,bima,ID,AS,medium_airport,-8.537184,118.685002
BGM,Greater Binghamton/Edwin A Link field,Binghamton,binghamton,US,NA,medium_airport,42.20869827,-75.97979736
BTU,Bintulu Airport,Bintulu,bintulu,MY,AS,medium_airport,3.12385010719,113.019996643
BIR,Biratnagar Airport,Biratnagar,biratnagar,NP,AS,medium_airport,26.48150062561035,87.26399993896484
XBJ,Birjand International Airport,Birjand,birjand,IR,AS,large_airport,32.896525,59.281258
BHX,Birmingham Airport,Birmingham,birmingham,GB,EU,large_airport,52.453899,-1.74803
BHH,Bisha Airport,Bisha,bisha,SA,AS,medium_airport,19.9844,42.620899
BSZ,Manas International Airport,Bishkek,bishkek,KG,AS,large_airport,43.061298,74.4776
BIH,Eastern Sierra Regional Airport,Bishop,bishop,US,NA,medium_airport,37.3731,-118.363998
BSK,Biskra - Mohamed Khider Airport,Biskra,biskra,DZ,AF,large_airport,34.79318,5.738899
BIS,Bismarck Municipal Airport,Bismarck,bismarck,US,NA,medium_airport,46.772734,-100.746874
OXB,Osvaldo Vieira International Airport,Bissau,bissau,GW,AF,large_airport,11.894262,-15.653596
BKQ,Blackall Airport,Blackall,blackall,AU,OC,medium_airport,-24.431678,145.429716
BQS,Ignatyevo Airport,Blagoveschensk,blagoveschensk,RU,AS,medium_airport,50.42539978027344,127.41200256347656
YBX,Lourdes-de-Blanc-Sablon Airport,Blanc-Sablon,blanc-sablon,CA,NA,medium_airport,51.4436,-57.185299
BLZ,Chileka International Airport,Blantyre,blantyre,MW,AF,large_airport,-15.677189,34.972319
BHE,Woodbourne Airport,Blenheim,blenheim,NZ,OC,medium_airport,-41.5182991027832,173.8699951171875
BFN,Bram Fischer International Airport,Bloemfontein,bloemfontein,ZA,AF,large_airport,-29.092699,26.302401
BMI,Central Illinois Regional Airport at Bloomington-Normal,Bloomington/Normal,bloomington/normal,US,NA,medium_airport,40.4771,-88.915901
TRI,Tri-Cities Regional TN/VA Airport,Blountville,blountville,US,NA,medium_airport,36.475201,-82.407401
BEF,Bluefields Airport,Bluefields,bluefields,NI,NA,medium_airport,11.991,-83.774101
BVB,Atlas Brasil Cantanhede International Airport,Boa Vista,boa vista,BR,SA,large_airport,2.84615,-60.690648
BOY,Bobo Dioulasso Airport,Bobo Dioulasso,bobo dioulasso,BF,AF,large_airport,11.1601,-4.33097
BOO,Bodø Airport,Bodø,bodø,NO,EU,large_airport,67.269203,14.3653
BJV,Milas Bodrum International Airport,Bodrum,bodrum,TR,AS,large_airport,37.249314,27.66401
BOG,El Dorado International Airport,Bogotá,bogota,CO,SA,large_airport,4.70159,-74.1469
BJB,Bojnord Airport,Bojnord,bojnord,IR,AS,medium_airport,37.49300003051758,57.30820083618164
BPL,Bole Alashankou Airport,Bole,bole,CN,AS,medium_airport,44.895461,82.30007
BLQ,Bologna Guglielmo Marconi Airport,Bologna,bologna,IT,EU,large_airport,44.5354,11.2887
BZO,Bolzano Airport,Bolzano (BZ),bolzano (bz),IT,EU,medium_airport,46.459245,11.326125
YVB,Bonaventure Airport,Bonaventure,bonaventure,CA,NA,medium_airport,48.071098,-65.460297
TWT,Sanga Sanga Airport,Bongao,bongao,PH,AS,medium_airport,5.048196,119.743338
YBY,Bonnyville Airport,Bonnyville,bonnyville,CA,NA,medium_airport,54.304199,-110.744003
BOD,Bordeaux–Mérignac Airport,Bordeaux,bordeaux,FR,EU,large_airport,44.82865,-0.715356
BLE,Dala Airport,Borlange,borlange,SE,EU,medium_airport,60.422001,15.5152
BSA,Bender Qassim International Airport,Bosaso,bosaso,SO,AF,large_airport,11.275235,49.139231
OCJ,Ian Fleming International Airport,Boscobel,boscobel,JM,NA,medium_airport,18.404079,-76.969754
BOS,Boston Logan International Airport,Boston,boston,US,NA,large_airport,42.36197,-71.0079
BYK,Bouaké Airport,Bouaké,bouake,CI,AF,medium_airport,7.7388,-5.07367
BLD,Boulder City Municipal Airport,Boulder City,boulder city,US,NA,medium_airport,35.947161,-114.858799
BOH,Bournemouth Airport,Bournemouth,bournemouth,GB,EU,medium_airport,50.780483,-1.839576
BVJ,Bovanenkovo Airport,Bovanenkovo,bovanenkovo,RU,AS,medium_airport,70.315278,68.333611
BZN,Bozeman Yellowstone International Airport,Bozeman,bozeman,US,NA,medium_airport,45.778853,-111.153711
BFD,Bradford Regional Airport,Bradford,bradford,US,NA,medium_airport,41.8031005859375,-78.64009857177734
BGC,Bragança Airport,Bragança,braganca,PT,EU,medium_airport,41.8578,-6.70713
BRD,Brainerd Lakes Regional Airport,Brainerd,brainerd,US,NA,medium_airport,46.402861,-94.129727
YBR,Brandon Municipal Airport,Brandon,brandon,CA,NA,medium_airport,49.91,-99.951897
BKG,Branson Airport,Branson,branson,US,NA,medium_airport,36.532082,-93.200544
BSB,Presidente Juscelino Kubitschek International Airport,Brasília,brasilia,BR,SA,large_airport,-15.869167,-47.920834
GHV,Brașov-Ghimbav International Airport,Brașov (Ghimbav),brasov (ghimbav),RO,EU,large_airport,45.70558,25.522871
BTS,M. R. Štefánik Airport,Bratislava,bratislava,SK,EU,large_airport,48.1702,17.2127
BTK,Bratsk Airport,Bratsk,bratsk,RU,AS,medium_airport,56.3696,101.701822
BZV,Maya-Maya International Airport,Brazzaville,brazzaville,CG,AF,large_airport,-4.2517,15.253
BRE,Bremen Airport,Bremen,bremen,DE,EU,large_airport,53.046786,8.78932
YKF,Region of Waterloo International Airport,Breslau,breslau,CA,NA,medium_airport,43.4608,-80.378601
BES,Brest Bretagne airport,Brest,brest,FR,EU,large_airport,48.447899,-4.41854
CKB,North Central West Virginia Airport,Bridgeport,bridgeport,US,NA,medium_airport,39.2966,-80.228104
BGI,Grantley Adams International Airport,Bridgetown,bridgetown,BB,NA,large_airport,13.074667,-59.491034
BDS,Brindisi Airport,Brindisi,brindisi,IT,EU,large_airport,40.6576,17.947001
BNE,Brisbane International Airport,Brisbane,brisbane,AU,OC,large_airport,-27.384199142456055,153.11700439453125
BRS,Bristol Airport,Bristol,bristol,GB,EU,large_airport,51.382326,-2.716453
BVE,Brive Souillac airport,Brive,brive,FR,EU,medium_airport,45.039722,1.485556
BRQ,Brno-Tuřany Airport,Brno,brno,CZ,EU,medium_airport,49.151276,16.693972
KGI,Kalgoorlie Boulder Airport,Broadwood,broadwood,AU,OC,medium_airport,-30.791543,121.464586
BHQ,Broken Hill Airport,Broken Hill,broken hill,AU,OC,medium_airport,-32.0013999939,141.472000122
BNN,"Brønnøysund Airport, Brønnøy",Brønnøy,brønnøy,NO,EU,medium_airport,65.461098,12.2175
BME,Broome International Airport,Broome,broome,AU,OC,large_airport,-17.949194,122.2283
BQK,Brunswick Golden Isles Airport,Brunswick,brunswick,US,NA,medium_airport,31.258801,-81.466499
BRU,Brussels Airport,Brussels,brussels,BE,EU,large_airport,50.901402,4.48444
BZK,Bryansk International Airport,Bryansk,bryansk,RU,AS,medium_airport,53.214199,34.176399
BGA,Palonegro Airport,Bucaramanga,bucaramanga,CO,SA,medium_airport,7.1265,-73.1848
BBU,Bucharest Băneasa Aurel Vlaicu International Airport,Bucharest,bucharest,RO,EU,large_airport,44.503133,26.102944
BUD,Budapest Liszt Ferenc International Airport,Budapest,budapest,HU,EU,large_airport,47.43018,19.262393
BUN,Gerardo Tobar López Airport,Buenaventura,buenaventura,CO,SA,medium_airport,3.81963,-76.9898
EZE,Ezeiza International Airport - Ministro Pistarini,Buenos Aires,buenos aires,AR,SA,large_airport,-34.8222,-58.5358
BUF,Buffalo Niagara International Airport,Buffalo,buffalo,US,NA,large_airport,42.940498,-78.732201
UUA,Bugulma Airport,Bugulma,bugulma,RU,AS,medium_airport,54.641184,52.800229
BJM,Bujumbura Melchior Ndadaye International Airport,Bujumbura,bujumbura,BI,AF,large_airport,-3.32402,29.318501
BUA,Buka Airport,Buka Island,buka island,PG,OC,medium_airport,-5.422299,154.672698
BHK,Bukhara International Airport,Bukhara,bukhara,UZ,AS,large_airport,39.775002,64.483299
BUQ,Joshua Mqabuko Nkomo International Airport,Bulawayo,bulawayo,ZW,AF,large_airport,-20.016284,28.622897
UGA,Bulgan Airport,Bulgan,bulgan,MN,AS,medium_airport,48.85499954223633,103.47599792480469
BDB,Bundaberg Airport,Bundaberg,bundaberg,AU,OC,medium_airport,-24.905039,152.322612
BUX,Bunia Airport,Bunia,bunia,CD,AF,medium_airport,1.565743,30.220685
BMV,Buon Ma Thuot Airport,Buon Ma Thuot,buon ma thuot,VN,AS,medium_airport,12.668299675,108.120002747
BUR,Hollywood Burbank Airport,Burbank,burbank,US,NA,large_airport,34.202834,-118.35805
BOJ,Burgas Airport,Burgas,burgas,BG,EU,large_airport,42.569917,27.515173
BFV,Buri Ram Airport,Buriram,buriram,TH,AS,medium_airport,15.2295,103.252998
BTV,Patrick Leahy Burlington International Airport,Burlington,burlington,US,NA,medium_airport,44.471901,-73.153297
BWT,Wynyard Airport,Burnie,burnie,AU,OC,medium_airport,-40.997039,145.726
YPZ,Burns Lake Airport,Burns Lake,burns lake,CA,NA,medium_airport,54.3764,-125.950996
NLK,Norfolk Island International Airport,Burnt Pine,burnt pine,NF,OC,medium_airport,-29.041759,167.939474
KJI,Burqin Kanas Airport,Burqin,burqin,CN,AS,medium_airport,48.2223,86.9959
PUS,Gimhae International Airport,Busan,busan,KR,AS,large_airport,35.179501,128.938004
BTM,Bert Mooney Airport,Butte,butte,US,NA,medium_airport,45.95479965209961,-112.49700164794922
BXU,Bancasi Airport,Butuan,butuan,PH,AS,medium_airport,8.9515,125.4788
CAH,Cà Mau Airport,Ca Mau City,ca mau city,VN,AS,medium_airport,9.177667,105.177778
ILO,Iloilo International Airport,Cabatuan,cabatuan,PH,AS,large_airport,10.833017,122.493358
CAB,Cabinda Airport,Cabinda,cabinda,AO,AF,medium_airport,-5.59839,12.188145
CSW,Cabo San Lucas International Airport,Cabo San Lucas,cabo san lucas,MX,NA,medium_airport,22.949072,-109.939479
CFR,Caen Carpiquet airport,Caen,caen,FR,EU,medium_airport,49.17678,-0.454883
CAG,Cagliari Elmas Airport,Cagliari,cagliari,IT,EU,large_airport,39.251499,9.05428
CNS,Cairns International Airport,Cairns,cairns,AU,OC,large_airport,-16.878921,145.74948
CAI,Cairo International Airport,Cairo,cairo,EG,AF,large_airport,30.111534,31.396694
CJA,Mayor General FAP Armando Revoredo Iglesias Airport,Cajamarca,cajamarca,PE,SA,medium_airport,-7.13918,-78.489403
CJC,El Loa Airport,Calama,calama,CL,SA,medium_airport,-22.498199,-68.903603
CYP,Calbayog Airport,Calbayog City,calbayog city,PH,AS,medium_airport,12.072574,124.54508
KSF,Kassel Airport,Calden,calden,DE,EU,large_airport,51.418395,9.391638
YYC,Calgary International Airport,Calgary,calgary,CA,NA,large_airport,51.118822,-114.009933
CLO,Alfonso Bonilla Aragon International Airport,Cali,cali,CO,SA,large_airport,3.542717,-76.381898
CCJ,Calicut International Airport,Calicut,calicut,IN,AS,large_airport,11.135996,75.955152
CLY,Calvi Sainte Catherine Airport,Calvi,calvi,FR,EU,medium_airport,42.530422,8.792984
CMW,Ignacio Agramonte International Airport,Camaguey,camaguey,CU,NA,large_airport,21.419909,-77.848039
YCB,Cambridge Bay Airport,Cambridge Bay,cambridge bay,CA,NA,medium_airport,69.1081008911,-105.138000488
YBL,Campbell River Airport,Campbell River,campbell river,CA,NA,medium_airport,49.950802,-125.271004
CAL,Campbeltown Airport,Campbeltown,campbeltown,GB,EU,medium_airport,55.437199,-5.68639
CPE,Ingeniero Alberto Acuña Ongay International Airport,Campeche,campeche,MX,NA,medium_airport,19.815969,-90.500125
CPV,Presidente João Suassuna Airport,Campina Grande,campina grande,BR,SA,medium_airport,-7.269662,-35.896057
VCP,Viracopos International Airport,Campinas,campinas,BR,SA,large_airport,-23.007404,-47.134502
CGR,Campo Grande Airport,Campo Grande,campo grande,BR,SA,medium_airport,-20.469998,-54.673988
EBA,Marina di Campo Airport,Campo nell'Elba (LI),campo nell'elba (li),IT,EU,medium_airport,42.760871,10.239811
CAW,Bartolomeu Lisandro Airport,Campos dos Goytacazes,campos dos goytacazes,BR,SA,medium_airport,-21.698299,-41.301701
VCA,Can Tho International Airport,Can Tho,can tho,VN,AS,large_airport,10.083397,105.709371
CAJ,Canaima Airport,Canaima,canaima,VE,SA,medium_airport,6.231989,-62.85485
CKZ,Çanakkale Airport,Çanakkale,canakkale,TR,AS,medium_airport,40.1376991272,26.4267997742
CBR,Canberra Airport,Canberra,canberra,AU,OC,medium_airport,-35.3069,149.195007
CUN,Cancún International Airport,Cancún,cancun,MX,NA,large_airport,21.040817,-86.87347
DCF,Canefield Airport,Canefield,canefield,DM,NA,medium_airport,15.336693,-61.392108
CIW,Canouan Airport,Canouan,canouan,VC,NA,medium_airport,12.699,-61.3424
CAP,Cap Haitien International Airport,Cap Haitien,cap haitien,HT,NA,large_airport,19.725547,-72.20071
CSK,Cap Skirring Airport,Cap Skirring,cap skirring,SN,AF,medium_airport,12.39533,-16.748
CGI,Cape Girardeau Regional Airport,Cape Girardeau,cape girardeau,US,NA,medium_airport,37.2253,-89.570801
LUR,Cape Lisburne LRRS Airport,Cape Lisburne,cape lisburne,US,NA,medium_airport,68.875099,-166.110001
CPT,Cape Town International Airport,Cape Town,cape town,ZA,AF,large_airport,-33.97403,18.604333
CCF,Carcassonne Salvaza Airport,Carcassonne,carcassonne,FR,EU,medium_airport,43.216,2.30632
CWL,Cardiff International Airport,Cardiff,cardiff,GB,EU,large_airport,51.396702,-3.34333
APO,Antonio Roldán Betancur Airport,Carepa,carepa,CO,SA,medium_airport,7.81196,-76.7164
CLD,McClellan-Palomar Airport,Carlsbad,carlsbad,US,NA,medium_airport,33.1283,-117.279999
CVQ,Carnarvon Airport,Carnarvon,carnarvon,AU,OC,medium_airport,-24.884337,113.666393
JEE,Jérémie Airport,Carrefour Sanon,carrefour sanon,HT,NA,medium_airport,18.663099,-74.170303
CTG,Rafael Nuñez International Airport,Cartagena,cartagena,CO,SA,large_airport,10.4424,-75.513
CUP,General Francisco Bermúdez Airport,Carúpano,carupano,VE,SA,medium_airport,10.660014,-63.261681
CMN,Mohammed V International Airport,Casablanca,casablanca,MA,AF,large_airport,33.3675,-7.58997
CAT,Cascais Airport,Cascais,cascais,PT,EU,medium_airport,38.724998,-9.35523
CAC,Coronel Adalberto Mendes da Silva Airport,Cascavel,cascavel,BR,SA,medium_airport,-25.000323,-53.501208
VRN,Verona Villafranca Valerio Catullo Airport,Caselle (VR),caselle (vr),IT,EU,large_airport,45.394955,10.887303
TRN,Turin Airport,Caselle Torinese (TO),caselle torinese (to),IT,EU,large_airport,45.200802,7.64963
CPR,Casper-Natrona County International Airport,Casper,casper,US,NA,medium_airport,42.907381,-106.461609
CDT,Castellón-Costa Azahar Airport,Castellón de la Plana,castellon de la plana,ES,EU,medium_airport,40.213889,0.073333
YCG,Castlegar/West Kootenay Regional Airport,Castlegar,castlegar,CA,NA,medium_airport,49.296398,-117.632004
IOM,Isle of Man Airport,Castletown,castletown,IM,EU,large_airport,54.083081,-4.623871
DCM,Castres Mazamet Airport,Castres,castres,FR,EU,medium_airport,43.556301,2.28918
SLU,George F. L. Charles Airport,Castries,castries,LC,NA,medium_airport,14.0202,-60.992901
ASI,RAF Ascension Island,Cat Hill,cat hill,SH,AF,medium_airport,-7.970179,-14.392744
TBI,New Bight Airport,Cat Island,cat island,BS,NA,medium_airport,24.3153,-75.452301
CTC,Coronel Felipe Varela International Airport,Catamarca,catamarca,AR,SA,medium_airport,-28.593117,-65.7512
CTA,Catania-Fontanarossa Airport,Catania,catania,IT,EU,large_airport,37.466801,15.0664
CRM,Catarman National Airport,Catarman,catarman,PH,AS,medium_airport,12.50161,124.635258
MPH,Godofredo P. Ramos Airport,Caticlan,caticlan,PH,AS,medium_airport,11.9245,121.954002
CBT,Catumbela Airport,Catumbela,catumbela,AO,AF,medium_airport,-12.4792,13.4869
CYZ,Cauayan Airport,Cauayan City,cauayan city,PH,AS,medium_airport,16.9298992157,121.752998352
CXJ,Hugo Cantergiani Regional Airport,Caxias Do Sul,caxias do sul,BR,SA,medium_airport,-29.197183,-51.187647
CUK,Caye Caulker Airport,Caye Caulker,caye caulker,BZ,NA,medium_airport,17.735015,-88.032862
CYC,Caye Chapel Airport,Caye Chapel,caye chapel,BZ,NA,medium_airport,17.683792,-88.044985
CCC,Jardines Del Rey Airport,Cayo Coco,cayo coco,CU,NA,medium_airport,22.461000442499998,-78.32839965820001
CYO,Vilo Acuña International Airport,Cayo Largo del Sur,cayo largo del sur,CU,NA,medium_airport,21.6165008545,-81.5459976196
CEB,Mactan Cebu International Airport,Cebu City/Lapu-Lapu City,cebu city/lapu-lapu city,PH,AS,large_airport,10.309261,123.97974
CDC,Cedar City Regional Airport,Cedar City,cedar city,US,NA,medium_airport,37.70100021362305,-113.0989990234375
CID,The Eastern Iowa Airport,Cedar Rapids,cedar rapids,US,NA,medium_airport,41.884701,-91.7108
NRR,José Aponte de la Torre Airport,Ceiba,ceiba,PR,NA,medium_airport,18.247262,-65.63979
JCL,České Budějovice South Bohemian Airport,České Budějovice,ceske budejovice,CZ,EU,large_airport,48.948171,14.42832
PSO,Antonio Nariño Airport,Chachagüí,chachagui,CO,SA,medium_airport,1.396722,-77.29093
CHH,Chachapoyas Airport,Chachapoyas,chachapoyas,PE,SA,medium_airport,-6.201911,-77.856195
CDR,Chadron Municipal Airport,Chadron,chadron,US,NA,medium_airport,42.837601,-103.095001
XCR,Chalons Vatry airport,Chalons en Champagne,chalons en champagne,FR,EU,medium_airport,48.77333,4.20611
CMF,Chambéry Aix les Bains airport,Chambéry,chambery,FR,EU,medium_airport,45.6381,5.88023
IXC,Shaheed Bhagat Singh International Airport,Chandigarh,chandigarh,IN,AS,large_airport,30.6735,76.788498
CGQ,Changchun Longjia International Airport,Changchun,changchun,CN,AS,large_airport,43.996201,125.684998
CGD,Changde Taohuayuan Airport,Changde (Dingcheng),changde (dingcheng),CN,AS,medium_airport,28.9189,111.639999
CSX,Changsha Huanghua International Airport,Changsha (Changsha),changsha (changsha),CN,AS,large_airport,28.189199,113.220001
CHX,Changuinola Captain Manuel Niño International Airport,Changuinola,changuinola,PA,NA,medium_airport,9.458962,-82.515062
CZX,Changzhou Benniu International Airport,Changzhou,changzhou,CN,AS,medium_airport,31.920485,119.77546
XAP,Serafin Enoss Bertaso Airport,Chapecó,chapeco,BR,SA,medium_airport,-27.134199,-52.656601
CPC,Aviador C. Campos Airport,Chapelco/San Martin de los Andes,chapelco/san martin de los andes,AR,SA,medium_airport,-40.075401,-71.137299
CHS,Charleston International Airport,Charleston,charleston,US,NA,large_airport,32.896159,-80.038151
NOC,Ireland West Airport Knock,Charlestown,charlestown,IE,EU,large_airport,53.910439,-8.817002
CTL,Charleville Airport,Charleville,charleville,AU,OC,medium_airport,-26.4132995605,146.261993408
YCL,Charlo Airport,Charlo,charlo,CA,NA,medium_airport,47.990799,-66.330299
CLT,Charlotte Douglas International Airport,Charlotte,charlotte,US,NA,large_airport,35.2140007019043,-80.94309997558594
CHA,Chattanooga Metropolitan Airport (Lovell Field),Chattanooga,chattanooga,US,NA,medium_airport,35.035301,-85.203796
CGP,Shah Amanat International Airport,Chattogram (Chittagong),chattogram (chittagong),BD,AS,large_airport,22.249599,91.813301
CSY,Cheboksary Airport,Cheboksary,cheboksary,RU,AS,medium_airport,56.090302,47.347301
CEK,Kurchatov Chelyabinsk International Airport,Chelyabinsk,chelyabinsk,RU,AS,large_airport,55.303141,61.504927
CDE,Chengde Puning Airport,Chengde,chengde,CN,AS,medium_airport,41.1225,118.073889
CTU,Chengdu Shuangliu International Airport,Chengdu,chengdu,CN,AS,large_airport,30.558257,103.945966
MAA,Chennai International Airport,Chennai,chennai,IN,AS,large_airport,12.990005,80.169296
HCZ,Chenzhou Beihu Airport,Chenzhou,chenzhou,CN,AS,medium_airport,25.753419,112.845404
CJJ,Cheongju International Airport/Cheongju Air Base (K-59/G-513),Cheongju,cheongju,KR,AS,large_airport,36.71556,127.500289
ULY,Ulyanovsk Vostochny Airport,Cherdakly,cherdakly,RU,AS,medium_airport,54.401001,48.8027
CEE,Cherepovets Airport,Cherepovets,cherepovets,RU,EU,medium_airport,59.273601532,38.015800476100004
CWC,Chernivtsi International Airport,Chernivtsi,chernivtsi,UA,EU,medium_airport,48.259300231933594,25.98080062866211
CYX,Cherskiy Airport,Cherskiy,cherskiy,RU,AS,medium_airport,68.7406005859375,161.33799743652344
CTM,Chetumal International Airport,Chetumal,chetumal,MX,NA,medium_airport,18.504985,-88.328018
CYS,Cheyenne Regional Jerry Olson Field,Cheyenne,cheyenne,US,NA,medium_airport,41.155701,-104.811997
CNX,Chiang Mai International Airport,Chiang Mai,chiang mai,TH,AS,large_airport,18.766799926799997,98.962600708
CEI,Mae Fah Luang - Chiang Rai International Airport,Chiang Rai,chiang rai,TH,AS,large_airport,19.952299,99.882896
YMT,Chapais Airport,Chibougamau,chibougamau,CA,NA,medium_airport,49.77190017700195,-74.5280990600586
ORD,Chicago O'Hare International Airport,Chicago,chicago,US,NA,large_airport,41.9786,-87.9048
CIX,Capitán FAP José A. Quiñones González International Airport,Chiclayo,chiclayo,PE,SA,large_airport,-6.789223,-79.828254
CIF,Chifeng Yulong Airport,Chifeng,chifeng,CN,AS,medium_airport,42.159723,118.840971
CUU,General Roberto Fierro Villalobos International Airport,Chihuahua,chihuahua,MX,NA,large_airport,28.702649,-105.963764
CHM,FAP Lieutenant Jaime Andres de Montreuil Morales Airport,Chimbote,chimbote,PE,SA,medium_airport,-9.14961,-78.523804
VPY,Chimoio Airport,Chimoio,chimoio,MZ,AF,medium_airport,-19.15130043029785,33.42900085449219
JKH,Chios Island National Airport,Chios Island,chios island,GR,EU,medium_airport,38.34320068359375,26.140600204467773
SDW,Sindhudurg Airport,Chipi,chipi,IN,AS,medium_airport,16.002552,73.529846
RMO,Chişinău International Airport,Chişinău,chisinau,MD,EU,large_airport,46.92774,28.931704
HTA,Chita-Kadala International Airport,Chita,chita,RU,AS,large_airport,52.024841,113.305839
DUE,Dundo Airport,Chitato,chitato,AO,AF,medium_airport,-7.400889873504639,20.818500518798828
CJL,Chitral Airport,Chitral,chitral,PK,AS,medium_airport,35.886213,71.799922
CTD,Alonso Valderrama Airport,Chitré,chitre,PA,NA,medium_airport,7.98784,-80.409837
CFK,Chlef Aboubakr Belkaid International Airport,Chlef,chlef,DZ,AF,large_airport,36.216614,1.341114
CKH,Chokurdakh Airport,Chokurdah,chokurdah,RU,AS,medium_airport,70.6231,147.901993
CKG,Chongqing Jiangbei International Airport,Chongqing,chongqing,CN,AS,large_airport,29.712254,106.651895
CHC,Christchurch International Airport,Christchurch,christchurch,NZ,OC,large_airport,-43.489029,172.532065
STX,Henry E. Rohlsen Airport,Christiansted,christiansted,VI,NA,medium_airport,17.701413,-64.802608
CCZ,Chub Cay Airport,Chub Cay,chub cay,BS,NA,medium_airport,25.417101,-77.880898
CJM,Chumphon Airport,Chumphon,chumphon,TH,AS,medium_airport,10.7112,99.361702
YYQ,Churchill Airport,Churchill,churchill,CA,NA,medium_airport,58.739200592041016,-94.06500244140625
CFG,Jaime Gonzalez Airport,Cienfuegos,cienfuegos,CU,NA,medium_airport,22.149999618530273,-80.41419982910156
CXP,Tunggul Wulung Airport,Cilacap,cilacap,ID,AS,medium_airport,-7.64506,109.033997
LUK,Cincinnati Municipal Airport Lunken Field,Cincinnati,cincinnati,US,NA,medium_airport,39.102357,-84.418945
CVG,Cincinnati Northern Kentucky International Airport,Cincinnati / Covington,cincinnati / covington,US,NA,large_airport,39.048801,-84.667801
MVD,Carrasco General Cesáreo L. Berisso International Airport,Ciudad de la Costa,ciudad de la costa,UY,SA,large_airport,-34.835647,-56.026497
CME,Ciudad del Carmen International Airport,Ciudad del Carmen,ciudad del carmen,MX,NA,medium_airport,18.651516,-91.799355
AGT,Guaraní International Airport,Ciudad del Este,ciudad del este,PY,SA,large_airport,-25.457186,-54.839544
CJS,Abraham González International Airport,Ciudad Juárez,ciudad juarez,MX,NA,large_airport,31.636673,-106.428533
TAM,General Francisco Javier Mina International Airport,Ciudad Madero,ciudad madero,MX,NA,medium_airport,22.292622,-97.867058
CEN,Ciudad Obregón International Airport,Ciudad Obregón,ciudad obregon,MX,NA,medium_airport,27.39259910583496,-109.83300018310547
CVM,General Pedro Jose Mendez International Airport,Ciudad Victoria,ciudad victoria,MX,NA,medium_airport,23.7033,-98.956497
CFE,Clermont-Ferrand Auvergne airport,Clermont-Ferrand,clermont-ferrand,FR,EU,large_airport,45.786701,3.16917
CLE,Cleveland Hopkins International Airport,Cleveland,cleveland,US,NA,large_airport,41.411701,-81.8498
CNJ,Cloncurry Airport,Cloncurry,cloncurry,AU,OC,medium_airport,-20.668600082399998,140.503997803
CVN,Clovis Municipal Airport,Clovis,clovis,US,NA,medium_airport,34.426594,-103.078794
CLJ,Avram Iancu Cluj International Airport,Cluj-Napoca,cluj-napoca,RO,EU,large_airport,46.786042,23.685733
CIJ,Capitán Aníbal Arab Airport,Cobija,cobija,BO,SA,medium_airport,-11.039109,-68.782774
OCC,Francisco De Orellana Airport,Coca,coca,EC,SA,medium_airport,-0.462886,-76.986801
CBB,Jorge Wilsterman International Airport,Cochabamba,cochabamba,BO,SA,large_airport,-17.421105,-66.177102
GDT,JAGS McCartney International Airport,Cockburn Town,cockburn town,TC,NA,medium_airport,21.4445,-71.142303
BBQ,Burton-Nibbs International Airport,Codrington,codrington,AG,NA,medium_airport,17.621194,-61.798347
COD,Yellowstone Regional Airport,Cody,cody,US,NA,medium_airport,44.520199,-109.024002
CUQ,Coen Airport,Coen,coen,AU,OC,medium_airport,-13.761133,143.113311
CJB,Coimbatore International Airport,Coimbatore,coimbatore,IN,AS,large_airport,11.03,77.043404
CDB,Cold Bay Airport,Cold Bay,cold bay,US,NA,medium_airport,55.207871,-162.725029
CLQ,Licenciado Miguel de la Madrid International Airport,Colima,colima,MX,NA,medium_airport,19.277,-103.577002
CLL,Easterwood Field,College Station,college station,US,NA,medium_airport,30.5886,-96.3638
LYS,Lyon Saint-Exupéry Airport,"Colombier-Saugnieu, Rhône","colombier-saugnieu, rhone",FR,EU,large_airport,45.725996,5.090139
CMB,Bandaranaike International Colombo Airport,Colombo,colombo,LK,AS,large_airport,7.180759906768799,79.88410186767578
ONX,Enrique Adolfo Jimenez Airport,Colón,colon,PA,NA,medium_airport,9.35664,-79.867401
CRI,Colonel Hill Airport,Colonel Hill,colonel hill,BS,NA,medium_airport,22.7456,-74.182404
COS,City of Colorado Springs Municipal Airport,Colorado Springs,colorado springs,US,NA,large_airport,38.805801,-104.700996
CAE,Columbia Metropolitan Airport,Columbia,columbia,US,NA,medium_airport,33.938172,-81.123022
LCK,Rickenbacker International Airport,Columbus,columbus,US,NA,medium_airport,39.813801,-82.927803
GTR,Golden Triangle Regional Airport,Columbus/W Point/Starkville,columbus/w point/starkville,US,NA,medium_airport,33.450298,-88.5914
CIY,Comiso Airport,Comiso,comiso,IT,EU,medium_airport,36.99583,14.60889
CRD,General Enrique Mosconi International Airport,Comodoro Rivadavia,comodoro rivadavia,AR,SA,large_airport,-45.786941,-67.463355
YQQ,Comox Valley International Airport / CFB Comox,Comox,comox,CA,NA,medium_airport,49.7108,-124.887001
VCS,Con Dao Airport,Con Dao,con dao,VN,AS,medium_airport,8.73183,106.633003
CKY,Ahmed Sékou Touré International Airport,Conakry,conakry,GN,AF,large_airport,9.57689,-13.612
CCP,Carriel Sur International Airport,Concepcion,concepcion,CL,SA,large_airport,-36.77235,-73.062828
CCR,Buchanan Field,Concord,concord,US,NA,medium_airport,37.9897,-122.056999
CND,Mihail Kogălniceanu International Airport,Constanța,constanta,RO,EU,large_airport,44.362202,28.4883
CZL,Mohamed Boudiaf International Airport,Constantine,constantine,DZ,AF,large_airport,36.276001,6.62039
CPD,Coober Pedy Airport,Coober Pedy,coober pedy,AU,OC,medium_airport,-29.038312,134.722166
OOM,Cooma Snowy Mountains Airport,Cooma,cooma,AU,OC,medium_airport,-36.300445,148.972408
CPH,Copenhagen Kastrup Airport,Copenhagen,copenhagen,DK,EU,large_airport,55.617900848389,12.656000137329
CPO,Desierto de Atacama Airport,Copiapo,copiapo,CL,SA,medium_airport,-27.2611999512,-70.7791976929
COR,Ingeniero Aeronáutico Ambrosio L.V. Taravella International Airport,Cordoba,cordoba,AR,SA,large_airport,-31.312346,-64.208329
CDV,Merle K (Mudhole) Smith Airport,Cordova,cordova,US,NA,medium_airport,60.491798,-145.477997
OCS,Corisco International Airport,Corisco Island,corisco island,GQ,AF,large_airport,0.910937,9.33027
ORK,Cork International Airport,Cork,cork,IE,EU,large_airport,51.841301,-8.49111
TEQ,Tekirdağ Çorlu Airport,Çorlu,corlu,TR,EU,medium_airport,41.138199,27.9191
CZE,José Leonardo Chirinos Airport,Coro,coro,VE,SA,medium_airport,11.414944,-69.680901
CZU,Las Brujas Airport,Corozal,corozal,CO,SA,medium_airport,9.33274,-75.2856
CRP,Corpus Christi International Airport,Corpus Christi,corpus christi,US,NA,medium_airport,27.770399,-97.501198
CNQ,Corrientes Airport,Corrientes,corrientes,AR,SA,medium_airport,-27.4455,-58.7619
CEZ,Cortez Municipal Airport,Cortez,cortez,US,NA,medium_airport,37.303001,-108.627998
CMG,Corumbá International Airport,Corumbá,corumba,BR,SA,medium_airport,-19.01193,-57.672772
RMU,Region of Murcia International Airport,Corvera,corvera,ES,AF,large_airport,37.802852,-1.124884
MTT,Minatitlán/Coatzacoalcos International Airport,Cosoleacaque,cosoleacaque,MX,NA,medium_airport,18.103399,-94.580704
COO,Cotonou Cadjehoun International Airport,Cotonou,cotonou,BJ,AF,large_airport,6.35723,2.38435
CXB,Cox's Bazar Airport,Cox's Bazar,cox's bazar,BD,AS,medium_airport,21.457517,91.963263
RTB,Juan Manuel Gálvez International Airport,Coxen Hole,coxen hole,HN,NA,large_airport,16.316799,-86.523003
CZM,Cozumel International Airport,Cozumel,cozumel,MX,NA,large_airport,20.514922,-86.928538
CRA,Craiova International Airport,Craiova,craiova,RO,EU,large_airport,44.3181,23.888599
YXC,Cranbrook/Canadian Rockies International Airport,Cranbrook,cranbrook,CA,NA,medium_airport,49.610802,-115.781998
CEC,Jack Mc Namara Field Airport,Crescent City,crescent city,US,NA,medium_airport,41.778929,-124.236403
JSH,Sitia Airport,Crete Island,crete island,GR,EU,medium_airport,35.21609878540039,26.101299285888672
CCM,Forquilhinha - Criciúma  Airport,Criciúma,criciuma,BR,SA,medium_airport,-28.725743,-49.424475
JJD,Comandante Ariston Pessoa Airport,Cruz,cruz,BR,SA,medium_airport,-2.906425,-40.357338
CZS,Cruzeiro do Sul Airport,Cruzeiro Do Sul,cruzeiro do sul,BR,SA,medium_airport,-7.59991,-72.769501
CUC,Camilo Daza International Airport,Cúcuta,cucuta,CO,SA,medium_airport,7.92757,-72.5115
CUE,Mariscal Lamar Airport,Cuenca,cuenca,EC,SA,medium_airport,-2.88947,-78.984398
CGB,Várzea Grande–Marechal Rondon International Airport,Cuiabá,cuiaba,BR,SA,large_airport,-15.6529,-56.116699
CPX,Benjamin Rivera Noriega Airport,Culebra,culebra,PR,NA,medium_airport,18.312954,-65.303893
CUL,Bachigualato Federal International Airport,Culiacán,culiacan,MX,NA,large_airport,24.76504,-107.475228
LCG,A Coruña Airport,Culleredo,culleredo,ES,EU,medium_airport,43.302101,-8.37726
CUM,Antonio José de Sucre Airport,Cumaná,cumana,VE,SA,medium_airport,10.450333,-64.13047
CWB,Curitiba-Afonso Pena International Airport,Curitiba,curitiba,BR,SA,large_airport,-25.5285,-49.1758
CUZ,Alejandro Velasco Astete International Airport,Cusco,cusco,PE,SA,large_airport,-13.535699844400002,-71.9387969971
DLI,Lien Khuong Airport,Da Lat,da lat,VN,AS,medium_airport,11.750556,108.366997
DAD,Da Nang International Airport,Da Nang,da nang,VN,AS,large_airport,16.0439,108.198997
TAE,Daegu International Airport,Daegu,daegu,KR,AS,large_airport,35.894394,128.656989
DKR,Léopold Sédar Senghor International Airport,Dakar,dakar,SN,AF,large_airport,14.742337,-17.479222
VIL,Dakhla Airport,Dakhla,dakhla,EH,AF,large_airport,23.7183,-15.932
DLM,Dalaman International Airport,Dalaman,dalaman,TR,AS,large_airport,36.7131,28.7925
DLZ,Dalanzadgad Airport,Dalanzadgad,dalanzadgad,MN,AS,medium_airport,43.608628,104.367734
DLU,Dali Fengyi Airport,Dali (Xiaguan),dali (xiaguan),CN,AS,medium_airport,25.649401,100.319
DLC,Dalian Zhoushuizi International Airport,Dalian (Ganjingzi),dalian (ganjingzi),CN,AS,large_airport,38.965719,121.538477
DFW,Dallas Fort Worth International Airport,Dallas,dallas,US,NA,large_airport,32.896801,-97.038002
DAM,Damascus International Airport,Damascus,damascus,SY,AS,large_airport,33.4114990234375,36.51559829711914
DDG,Dandong Langtou International Airport,Dandong (Zhenxing),dandong (zhenxing),CN,AS,medium_airport,40.025453,124.28669
DGA,Dangriga Airport,Dangriga,dangriga,BZ,NA,medium_airport,16.98251,-88.230988
DAR,Julius Nyerere International Airport,Dar es Salaam,dar es salaam,TZ,AF,large_airport,-6.873499,39.207288
DBR,Darbhanga Airport,Darbhanga,darbhanga,IN,AS,medium_airport,26.192801,85.916901
MME,Teesside International Airport,"Darlington, Durham","darlington, durham",GB,EU,medium_airport,54.509201,-1.42941
DAU,Daru Airport,Daru,daru,PG,OC,medium_airport,-9.08676,143.207993
DRW,Darwin International Airport / RAAF Darwin,Darwin,darwin,AU,OC,large_airport,-12.41497,130.88185
TAZ,Dashoguz International Airport,Daşoguz,dasoguz,TM,AS,large_airport,41.759853,59.836149
DAT,Datong Yungang International Airport,Datong,datong,CN,AS,large_airport,40.06139,113.480509
CBO,Cotabato (Awang) Airport,Datu Odin Sinsuat,datu odin sinsuat,PH,AS,medium_airport,7.164753,124.209938
YDN,Dauphin Barker Airport,Dauphin,dauphin,CA,NA,medium_airport,51.1008,-100.052002
DVO,Francisco Bangoy International Airport,Davao,davao,PH,AS,large_airport,7.12552,125.646004
DAV,Enrique Malek International Airport,David,david,PA,NA,medium_airport,8.388983,-82.436425
DWD,Dawadmi Domestic Airport,Dawadmi,dawadmi,SA,AS,medium_airport,24.4499,44.121201
TVY,Dawei Airport,Dawei,dawei,MM,AS,medium_airport,14.1039,98.203598
YDA,Dawson City Airport,Dawson City,dawson city,CA,NA,medium_airport,64.04309844970703,-139.1280059814453
DAY,James M. Cox Dayton International Airport,Dayton,dayton,US,NA,medium_airport,39.902401,-84.219398
DAB,Daytona Beach International Airport,Daytona Beach,daytona beach,US,NA,medium_airport,29.18255,-81.059464
DZH,Dazhou Jinya Airport,Dazhou (Dachuan),dazhou (dachuan),CN,AS,medium_airport,31.048815,107.435646
SCC,Deadhorse Airport,Deadhorse,deadhorse,US,NA,medium_airport,70.19470215,-148.4649963
LGI,Deadman's Cay Airport,Deadman's Cay,deadman's cay,BS,NA,medium_airport,23.1790008545,-75.09359741210001
DOL,Deauville Normandie airport,Deauville,deauville,FR,EU,medium_airport,49.365237,0.154481
DEB,Debrecen International Airport,Debrecen,debrecen,HU,EU,large_airport,47.489469,21.616278
DEC,Decatur Airport,Decatur,decatur,US,NA,medium_airport,39.834598541259766,-88.8656997680664
YDF,Deer Lake Airport,Deer Lake,deer lake,CA,NA,medium_airport,49.208159,-57.396147
DRG,Deering Airport,Deering,deering,US,NA,medium_airport,66.068901,-162.766914
LUM,Dehong Mangshi International Airport,Dehong (Mangshi),dehong (mangshi),CN,AS,medium_airport,24.4011,98.5317
DED,Dehradun Jolly Grant Airport,Dehradun (Jauligrant),dehradun (jauligrant),IN,AS,medium_airport,30.189243,78.176651
MJK,Shark Bay Airport,Denham,denham,AU,OC,medium_airport,-25.897294,113.575802
DNZ,Çardak Airport,Denizli,denizli,TR,AS,medium_airport,37.7855987549,29.7012996674
DEN,Denver International Airport,Denver,denver,US,NA,large_airport,39.860027,-104.673792
DEA,Dera Ghazi Khan Airport,Dera Ghazi Khan,dera ghazi khan,PK,AS,medium_airport,29.961000442504883,70.48590087890625
LDY,City of Derry Airport,"Derry, Derry and Strabane","derry, derry and strabane",GB,EU,medium_airport,55.042801,-7.16111
DSM,Des Moines International Airport,Des Moines,des moines,US,NA,large_airport,41.534027,-93.656719
DSI,Destin Executive Airport,Destin,destin,US,NA,medium_airport,30.400101,-86.471497
DTW,Detroit Metropolitan Wayne County Airport,Detroit,detroit,US,NA,large_airport,42.21377,-83.353786
DVL,Devils Lake Regional Airport,Devils Lake,devils lake,US,NA,medium_airport,48.115454,-98.908796
DPO,Devonport Airport,Devonport,devonport,AU,OC,medium_airport,-41.1697006226,146.429992676
DEF,Dezful Airport,Dezful,dezful,IR,AS,medium_airport,32.434399,48.397598
DAC,Hazrat Shahjalal International Airport,Dhaka,dhaka,BD,AS,large_airport,23.843347,90.397783
DIB,Dibrugarh Airport,Dibrugarh,dibrugarh,IN,AS,medium_airport,27.4839000702,95.0168991089
DIK,Dickinson Theodore Roosevelt Regional Airport,Dickinson,dickinson,US,NA,medium_airport,46.797533,-102.801905
DIN,Dien Bien Phu Airport,Dien Bien Phu,dien bien phu,VN,AS,medium_airport,21.3974990845,103.008003235
DIJ,Dijon Longvic airport,Dijon,dijon,FR,EU,medium_airport,47.268902,5.09
DIL,Presidente Nicolau Lobato International Airport,Dili,dili,TL,AS,large_airport,-8.546562,125.524507
DLG,Dillingham Airport,Dillingham,dillingham,US,NA,medium_airport,59.04470062,-158.5050049
DMU,Dimapur Airport,Dimapur,dimapur,IN,AS,medium_airport,25.883899688699998,93.77110290530001
DNR,Dinard Pleurtuit Saint-Malo airport,Dinard,dinard,FR,EU,medium_airport,48.5877,-2.07996
DPL,Dipolog Airport,Dipolog,dipolog,PH,AS,medium_airport,8.601983,123.341875
DIG,Diqing Shangri-La Airport,Diqing (Shangri-La),diqing (shangri-la),CN,AS,medium_airport,27.7936,99.6772
DIR,Aba Tenna Dejazmach Yilma International Airport,Dire Dawa,dire dawa,ET,AF,large_airport,9.623549,41.855027
DIY,Diyarbakır Airport,Diyarbakır,diyarbakır,TR,AS,medium_airport,37.893902,40.201
DJG,Tiska Djanet Airport,Djanet,djanet,DZ,AF,large_airport,24.285448,9.463652
JIB,Djibouti-Ambouli Airport,Djibouti City,djibouti city,DJ,AF,large_airport,11.5473,43.1595
DNK,Dnipro International Airport,Dnipro,dnipro,UA,EU,medium_airport,48.357201,35.100601
DDC,Dodge City Regional Airport,Dodge City,dodge city,US,NA,medium_airport,37.76340103149414,-99.9655990600586
DOD,Dodoma Airport,Dodoma,dodoma,TZ,AF,medium_airport,-6.17044,35.752602
DOH,Hamad International Airport,Doha,doha,QA,AS,large_airport,25.273056,51.608056
DLE,Dole Tavaux Airport,Dole,dole,FR,EU,medium_airport,47.038955,5.427589
CFN,Donegal Airport,Donegal,donegal,IE,EU,medium_airport,55.0442008972168,-8.340999603271484
VDH,Dong Hoi Airport,Dong Hoi,dong hoi,VN,AS,medium_airport,17.515,106.590556
DOG,Dongola Airport,Dongola,dongola,SD,AF,medium_airport,19.153666,30.430069
DOY,Dongying Shengli Airport,Dongying (Kenli),dongying (kenli),CN,AS,medium_airport,37.50137,118.789863
DTM,Dortmund Airport,Dortmund,dortmund,DE,EU,large_airport,51.518299,7.61224
DHN,Dothan Regional Airport,Dothan,dothan,US,NA,medium_airport,31.321300506591797,-85.44960021972656
DLA,Douala International Airport,Douala,douala,CM,AF,large_airport,4.00608,9.71948
DRS,Dresden Airport,Dresden,dresden,DE,EU,large_airport,51.134123,13.767831
DXB,Dubai International Airport,Dubai,dubai,AE,AS,large_airport,25.24979,55.370992
DBO,Dubbo City Regional Airport,Dubbo,dubbo,AU,OC,medium_airport,-32.2167015076,148.574996948
DUB,Dublin Airport,Dublin,dublin,IE,EU,large_airport,53.428713,-6.262121
DUJ,DuBois Regional Airport,Dubois,dubois,US,NA,medium_airport,41.17829895,-78.8986969
TZL,Tuzla International Airport,Dubrave Gornje,dubrave gornje,BA,EU,large_airport,44.459858,18.723627
DBV,Dubrovnik Ruđer Bošković Airport,Dubrovnik,dubrovnik,HR,EU,large_airport,42.562247,18.265543
DBQ,Dubuque Regional Airport,Dubuque,dubuque,US,NA,medium_airport,42.402,-90.709503
DLH,Duluth International Airport,Duluth,duluth,US,NA,medium_airport,46.841873,-92.198746
DGT,Sibulan Airport,Dumaguete City,dumaguete city,PH,AS,medium_airport,9.334183,123.30191
DUM,Pinang Kampai Airport,Dumai,dumai,ID,AS,medium_airport,1.609026,101.433493
DND,Dundee Airport,Dundee,dundee,GB,EU,medium_airport,56.452499,-3.02583
DUD,Dunedin International Airport,Dunedin,dunedin,NZ,OC,medium_airport,-45.929017,170.197758
DNH,Dunhuang Mogao International Airport,Dunhuang,dunhuang,CN,AS,large_airport,40.164041,94.811722
DQM,Duqm International Airport,Duqm,duqm,OM,AS,large_airport,19.501944,57.634167
DRO,Durango La Plata County Airport,Durango,durango,US,NA,medium_airport,37.151501,-107.753998
DUR,King Shaka International Airport,Durban,durban,ZA,AF,large_airport,-29.6144444444,31.1197222222
RDP,Kazi Nazrul Islam Airport,Durgapur,durgapur,IN,AS,medium_airport,23.6225,87.243
DYU,Dushanbe International Airport,Dushanbe,dushanbe,TJ,AS,large_airport,38.543746,68.822977
DUS,Düsseldorf Airport,Düsseldorf,dusseldorf,DE,EU,large_airport,51.289501,6.76678
DZA,Dzaoudzi Pamandzi International Airport,Dzaoudzi,dzaoudzi,YT,AF,large_airport,-12.809319,45.281815
EGE,Eagle County Regional Airport,Eagle,eagle,US,NA,medium_airport,39.64260101,-106.9179993
ABX,Albury Airport,East Albury,east albury,AU,OC,medium_airport,-36.066758,146.959148
ELS,King Phalo Airport,East London,east london,ZA,AF,large_airport,-33.035599,27.825899
ESD,Orcas Island Airport,Eastsound,eastsound,US,NA,medium_airport,48.708199,-122.910004
EAU,Chippewa Valley Regional Airport,Eau Claire,eau claire,US,NA,medium_airport,44.86579895019531,-91.48429870605469
EOI,Eday Airport,Eday,eday,GB,EU,medium_airport,59.19060134887695,-2.7722198963165283
EDI,Edinburgh Airport,Edinburgh,edinburgh,GB,EU,large_airport,55.950145,-3.372288
YEG,Edmonton International Airport,Edmonton,edmonton,CA,NA,large_airport,53.3097,-113.580002
EDO,Balıkesir Koca Seyit Airport,Edremit,edremit,TR,AS,large_airport,39.552533,27.010192
EGX,Egegik Airport,Egegik,egegik,US,NA,medium_airport,58.184386,-157.374873
EGS,Egilsstaðir Airport,Egilsstaðir,egilsstaðir,IS,EU,medium_airport,65.2833023071289,-14.401399612426758
ETM,Ramon International Airport,Eilat,eilat,IL,AS,large_airport,29.727009,35.014116
EIN,Eindhoven Airport,Eindhoven,eindhoven,NL,EU,large_airport,51.4500999451,5.37452983856
EUN,Laayoune Hassan I International Airport,El Aaiún,el aaiun,EH,AF,large_airport,27.142467,-13.224947
DBB,El Alamein International Airport,El Alamein,el alamein,EG,AF,large_airport,30.924324,28.46161
AAC,El Arish International Airport,El Arish,el arish,EG,AF,large_airport,31.055324,33.827964
GHA,Noumérat - Moufdi Zakaria Airport,El Atteuf,el atteuf,DZ,AF,medium_airport,32.384102,3.79411
FTE,El Calafate - Commander Armando Tola International Airport,El Calafate,el calafate,AR,SA,large_airport,-50.281997,-72.053949
ELD,South Arkansas Regional Airport at Goodwin Field,El Dorado,el dorado,US,NA,medium_airport,33.221001,-92.813301
ELF,El Fasher Airport,El Fasher,el fasher,SD,AF,medium_airport,13.614899635314941,25.324600219726562
VDE,El Hierro Airport,El Hierro Island,el hierro island,ES,AF,medium_airport,27.8148,-17.8871
FUE,Fuerteventura Airport,El Matorral,el matorral,ES,AF,large_airport,28.4527,-13.8638
ELG,El Golea Airport,El Menia,el menia,DZ,AF,medium_airport,30.580732,2.861595
ELP,El Paso International Airport,El Paso,el paso,US,NA,large_airport,31.809908,-106.375607
ESR,Ricardo García Posada Airport,El Salvador,el salvador,CL,SA,medium_airport,-26.3111,-69.765198
SOM,San Tomé Airport,El Tigre,el tigre,VE,SA,medium_airport,8.9451465606689,-64.151084899902
VIG,Juan Pablo Pérez Alfonso Airport,El Vigía,el vigia,VE,SA,medium_airport,8.624139,-71.672668
EBD,El-Obeid Airport,El-Obeid,el-obeid,SD,AF,medium_airport,13.1532,30.2327
EZS,Elazığ Airport,Elazığ,elazıg,TR,AS,medium_airport,38.597974,39.28348
ELC,Elcho Island Airport,Elcho Island,elcho island,AU,OC,medium_airport,-12.019399642899998,135.570999146
EDL,Eldoret International Airport,Eldoret,eldoret,KE,AF,large_airport,0.404458,35.238899
ESL,Elista Airport,Elista,elista,RU,EU,medium_airport,46.3739013671875,44.33089828491211
EKO,Elko Regional Airport,Elko,elko,US,NA,medium_airport,40.82490158081055,-115.79199981689453
ELM,Elmira Corning Regional Airport,Elmira/Corning,elmira/corning,US,NA,medium_airport,42.1599006652832,-76.8916015625
EMD,Emerald Airport,Emerald,emerald,AU,OC,medium_airport,-23.5674991608,148.179000854
EMK,Emmonak Airport,Emmonak,emmonak,US,NA,medium_airport,62.78609848,-164.4909973
ENO,Teniente Ramon A. Ayub Gonzalez International Airport,Encarnación,encarnacion,PY,SA,large_airport,-27.227537,-55.837584
ENU,Akanu Ibiam International Airport,Enegu,enegu,NG,AF,large_airport,6.473718,7.560463
NBE,Enfidha - Hammamet International Airport,Enfidha,enfidha,TN,AF,medium_airport,36.075833,10.438611
ENF,Enontekio Airport,Enontekio,enontekio,FI,EU,medium_airport,68.362602233887,23.424299240112
ENH,Enshi Xujiaping Airport,Enshi (Enshi),enshi (enshi),CN,AS,medium_airport,30.320299,109.485001
EBB,Entebbe International Airport,Entebbe,entebbe,UG,AF,large_airport,0.042386,32.443501
BRR,Barra Airport,Eoligarry,eoligarry,GB,EU,medium_airport,57.0228,-7.44306
ERL,Erenhot Saiwusu International Airport,Erenhot,erenhot,CN,AS,medium_airport,43.424079,112.091081
ERF,Erfurt-Weimar Airport,Erfurt,erfurt,DE,EU,large_airport,50.978281,10.960713
ERI,Erie International Tom Ridge Field,Erie,erie,US,NA,medium_airport,42.083127,-80.173867
ERH,Moulay Ali Cherif Airport,Errachidia,errachidia,MA,AF,medium_airport,31.9475002289,-4.39833021164
ERC,Erzincan Airport,Erzincan,erzincan,TR,AS,medium_airport,39.7102012634,39.527000427199994
ERZ,Erzurum International Airport,Erzurum,erzurum,TR,AS,medium_airport,39.956501,41.1702
ORN,Oran Es-Sénia (Ahmed Ben Bella) International Airport,Es-Sénia,es-senia,DZ,AF,large_airport,35.620648,-0.622486
EBJ,Esbjerg Airport,Esbjerg,esbjerg,DK,EU,medium_airport,55.525902,8.5534
ESC,Delta County Airport,Escanaba,escanaba,US,NA,medium_airport,45.723199,-87.088623
AOE,Hasan Polatkan Airport,Eskişehir,eskisehir,TR,AS,large_airport,39.811644,30.519268
SID,Amílcar Cabral International Airport,Espargos,espargos,CV,AF,large_airport,16.7414,-22.9494
EPR,Esperance Airport,Esperance,esperance,AU,OC,medium_airport,-33.684399,121.822998
EQS,Esquel Brigadier Antonio Parodi International Airport,Esquel,esquel,AR,SA,medium_airport,-42.908001,-71.139503
ESU,Essaouira-Mogador Airport,Essaouira,essaouira,MA,AF,medium_airport,31.397499,-9.68167
EUG,Eugene Airport,Eugene,eugene,US,NA,medium_airport,44.124599,-123.211998
EVV,Evansville Regional Airport,Evansville,evansville,US,NA,medium_airport,38.0369987488,-87.5324020386
EVE,Harstad/Narvik Airport,Evenes,evenes,NO,EU,large_airport,68.491302,16.678101
TTN,Trenton Mercer Airport,Ewing Township,ewing township,US,NA,medium_airport,40.276699,-74.813499
EXT,Exeter International Airport,"Exeter, Devon","exeter, devon",GB,EU,medium_airport,50.734261,-3.413984
LEA,Learmonth Airport,Exmouth,exmouth,AU,OC,medium_airport,-22.235201,114.090024
EHU,Ezhou Huahu International Airport,Ezhou,ezhou,CN,AS,large_airport,30.341178,115.03926
FAI,Fairbanks International Airport,Fairbanks,fairbanks,US,NA,medium_airport,64.815102,-147.856003
LYP,Faisalabad International Airport,Faisalabad,faisalabad,PK,AS,large_airport,31.364923,72.995319
AYJ,Maharshi Valmiki International Airport,Faizabad,faizabad,IN,AS,medium_airport,26.747736,82.163664
FKQ,Fakfak Airport,Fakfak,fakfak,ID,AS,medium_airport,-2.920508,132.267011
AOI,Marche Airport,Falconara Marittima (AN),falconara marittima (an),IT,EU,medium_airport,43.616299,13.3623
FGU,Fangatau Airport,Fangatau,fangatau,PF,OC,medium_airport,-15.820044,-140.888071
HUH,Huahine-Fare Airport,Fare,fare,PF,OC,medium_airport,-16.687084,-151.021593
FAR,Hector International Airport,Fargo,fargo,US,NA,medium_airport,46.9207,-96.815804
FAO,Faro - Gago Coutinho International Airport,Faro,faro,PT,EU,large_airport,37.015909,-7.970939
KIR,Kerry Airport,Farranfore,farranfore,IE,EU,medium_airport,52.180901,-9.52378
FAY,Fayetteville Regional Airport - Grannis Field,Fayetteville,fayetteville,US,NA,medium_airport,34.991199,-78.880302
XNA,Northwest Arkansas National Airport,Fayetteville/Springdale/Rogers,fayetteville/springdale/rogers,US,NA,medium_airport,36.281898,-94.306801
FEC,João Durval Carneiro Airport,Feira de Santana,feira de santana,BR,SA,medium_airport,-12.200694,-38.906164
GRZ,Graz Airport,Feldkirchen bei Graz,feldkirchen bei graz,AT,EU,large_airport,46.9911,15.4396
FEG,Fergana International Airport,Fergana,fergana,UZ,AS,medium_airport,40.358799,71.745003
FEN,Fernando de Noronha Airport,Fernando de Noronha,fernando de noronha,BR,SA,medium_airport,-3.854534,-32.423017
FSC,Figari Sud-Corse Airport,Figari,figari,FR,EU,large_airport,41.50185,9.097092
FLG,Flagstaff Pulliam Airport,Flagstaff,flagstaff,US,NA,medium_airport,35.139757,-111.669826
FNT,Bishop International Airport,Flint,flint,US,NA,medium_airport,42.969294,-83.743355
FLR,"Florence Airport, Peretola",Florence,florence,IT,EU,large_airport,43.808558,11.202822
FLA,Gustavo Artunduaga Paredes Airport,Florencia,florencia,CO,SA,medium_airport,1.58919,-75.5644
FLN,Hercílio Luz International Airport,Florianópolis,florianopolis,BR,SA,large_airport,-27.670279,-48.552502
FRO,Florø Airport,Florø,florø,NO,EU,medium_airport,61.583599090576,5.0247201919556
XCH,Christmas Island International Airport,Flying Fish Cove,flying fish cove,CX,AS,large_airport,-10.450387,105.6911
FOG,Foggia Gino Lisa Airport,Foggia (FG),foggia (fg),IT,EU,medium_airport,41.433596,15.534566
WGA,Wagga Wagga Airport,Forest Hill,forest hill,AU,OC,medium_airport,-35.163484,147.46832
FRL,Forlì-Luigi Ridolfi International Airport,Forlì (FC),forli (fc),IT,EU,medium_airport,44.194801,12.0701
FMA,Formosa National Airport,Formosa,formosa,AR,SA,medium_airport,-26.2127,-58.2281
GRK,Killeen Regional Airport / Robert Gray Army Airfield,Fort Cavazos,fort cavazos,US,NA,medium_airport,31.0672,-97.828903
YPY,Fort Chipewyan Airport,Fort Chipewyan,fort chipewyan,CA,NA,medium_airport,58.7672004699707,-111.11699676513672
FOD,Fort Dodge Regional Airport,Fort Dodge,fort dodge,US,NA,medium_airport,42.552624,-94.191237
YAG,Fort Frances Municipal Airport,Fort Frances,fort frances,CA,NA,medium_airport,48.655749,-93.44349
FLL,Fort Lauderdale Hollywood International Airport,Fort Lauderdale,fort lauderdale,US,NA,large_airport,26.072599,-80.152702
TBN,Waynesville-St. Robert Regional Airport-Forney Field,Fort Leonard Wood,fort leonard wood,US,NA,medium_airport,37.7416,-92.140701
YMM,Fort McMurray International Airport,Fort McMurray,fort mcmurray,CA,NA,medium_airport,56.653301,-111.222
RSW,Southwest Florida International Airport,Fort Myers,fort myers,US,NA,large_airport,26.534685,-81.752816
YYE,Fort Nelson Airport,Fort Nelson,fort nelson,CA,NA,medium_airport,58.8363990784,-122.597000122
YXJ,Fort St John / North Peace Regional Airport,Fort Saint John,fort saint john,CA,NA,medium_airport,56.238098,-120.739998
PZH,Zhob Airport,Fort Sandeman,fort sandeman,PK,AS,medium_airport,31.358400344848633,69.4636001586914
YFS,Fort Simpson Airport,Fort Simpson,fort simpson,CA,NA,medium_airport,61.76020050048828,-121.23699951171875
FSM,Fort Smith Regional Airport,Fort Smith,fort smith,US,NA,medium_airport,35.336601,-94.367401
FWA,Fort Wayne International Airport,Fort Wayne,fort wayne,US,NA,medium_airport,40.978896,-85.194465
FTW,Fort Worth Meacham International Airport,Fort Worth,fort worth,US,NA,medium_airport,32.819919,-97.360818
FYU,Fort Yukon Airport,Fort Yukon,fort yukon,US,NA,medium_airport,66.571651,-145.249987
FDF,Martinique Aimé Césaire International Airport,Fort-de-France,fort-de-france,MQ,NA,large_airport,14.591,-61.003201
FOR,Pinto Martins International Airport,Fortaleza,fortaleza,BR,SA,large_airport,-3.775833,-38.532222
FUO,Foshan Shadi Airport,Foshan (Nanhai),foshan (nanhai),CN,AS,medium_airport,23.0825,113.070833
IGU,Cataratas International Airport,Foz do Iguaçu,foz do iguacu,BR,SA,large_airport,-25.594167,-54.489444
MVB,M'Vengue El Hadj Omar Bongo Ondimba International Airport,Franceville,franceville,GA,AF,large_airport,-1.65616,13.438
FRW,Phillip Gaonwe Matante International Airport,Francistown,francistown,BW,AF,large_airport,-21.159183,27.468826
FRA,Frankfurt Main Airport,Frankfurt,frankfurt,DE,EU,large_airport,50.026706,8.55835
YFC,Fredericton International Airport,Fredericton,fredericton,CA,NA,medium_airport,45.868697,-66.529891
MBS,MBS International Airport,Freeland,freeland,US,NA,medium_airport,43.533181,-84.083104
FPO,Grand Bahama International Airport,Freeport,freeport,BS,NA,large_airport,26.557996,-78.695583
FNA,Lungi International Airport,Freetown (Lungi-Town),freetown (lungi-town),SL,AF,large_airport,8.61644,-13.1955
FAT,Fresno Yosemite International Airport,Fresno,fresno,US,NA,large_airport,36.775767,-119.718018
FDH,Bodensee Airport Friedrichshafen,Friedrichshafen,friedrichshafen,DE,EU,large_airport,47.671299,9.51149
FJR,Fujairah International Airport,Fujairah,fujairah,AE,AS,large_airport,25.108411,56.328061
FUK,Fukuoka Airport,Fukuoka,fukuoka,JP,AS,large_airport,33.585899353027344,130.4510040283203
FUN,Funafuti International Airport,Funafuti,funafuti,TV,OC,medium_airport,-8.523885,179.196976
FNC,Cristiano Ronaldo International Airport,Funchal,funchal,PT,EU,large_airport,32.697812,-16.774613
FYJ,Fuyuan Dongji Airport,Fuyuan,fuyuan,CN,AS,medium_airport,48.197219,134.36298
FYN,Fuyun Koktokay Airport,Fuyun,fuyun,CN,AS,medium_airport,46.804169,89.512006
FOC,Fuzhou Changle International Airport,Fuzhou (Changle),fuzhou (changle),CN,AS,large_airport,25.929254,119.672524
GBB,Gabala International Airport,Gabala,gabala,AZ,AS,medium_airport,40.808617,47.725389
GAE,Gabès Matmata International Airport,Gabès,gabes,TN,AF,medium_airport,33.733691,9.91941
GBE,Sir Seretse Khama International Airport,Gaborone,gaborone,BW,AF,large_airport,-24.555201,25.9182
GCH,Gachsaran Airport,Gachsaran,gachsaran,IR,AS,medium_airport,30.333869,50.833796
GAF,Gafsa Ksar International Airport,Gafsa,gafsa,TN,AF,medium_airport,34.422000885009766,8.822500228881836
GNV,Gainesville Regional Airport,Gainesville,gainesville,US,NA,medium_airport,29.6900997162,-82.2717971802
GAL,Edward G. Pitka Sr Airport,Galena,galena,US,NA,medium_airport,64.736198,-156.936997
KCT,Koggala Airport,Galle,galle,LK,AS,medium_airport,5.993680000305176,80.32029724121094
GEV,Gällivare Airport,Gällivare,gallivare,SE,EU,medium_airport,67.13240051269531,20.814599990844727
GUP,Gallup Municipal Airport,Gallup,gallup,US,NA,medium_airport,35.511653,-108.788166
GMB,Gambela Airport,Gambela,gambela,ET,AF,medium_airport,8.12876,34.563099
GAM,Gambell Airport,Gambell,gambell,US,NA,medium_airport,63.767694,-171.733303
GAN,Gan International Airport,Gan,gan,MV,AS,large_airport,-0.692975,73.152627
YQX,Gander International Airport,Gander,gander,CA,NA,medium_airport,48.936258,-54.567719
GNJ,Ganja International Airport,Ganja,ganja,AZ,AS,large_airport,40.738692,46.320383
GXH,Gannan Xiahe Airport,Gannan (Xiahe),gannan (xiahe),CN,AS,medium_airport,34.819014,102.622261
GAQ,Gao International Airport,Gao,gao,ML,AF,medium_airport,16.248466,-0.005389
GCK,Garden City Regional Airport,Garden City,garden city,US,NA,medium_airport,37.9275016785,-100.723999023
GOU,Garoua International Airport,Garoua,garoua,CM,AF,large_airport,9.334785,13.372129
GYY,Gary/Chicago International Airport,Gary,gary,US,NA,medium_airport,41.617087,-87.413206
DCY,Daocheng Yading Airport,Garzê (Daocheng),garze (daocheng),CN,AS,medium_airport,29.31632,100.060317
KGT,Kangding Airport,Garzê (Kangding),garze (kangding),CN,AS,medium_airport,30.142464,101.73872
YGP,Michel-Pouliot Gaspé Airport,Gaspé,gaspe,CA,NA,medium_airport,48.774915,-64.481893
GAY,Gaya Airport,Gaya,gaya,IN,AS,medium_airport,24.744301,84.951202
GZT,Gaziantep Oğuzeli International Airport,Gaziantep,gaziantep,TR,AS,large_airport,36.947201,37.478699
ADB,Adnan Menderes International Airport,Gaziemir,gaziemir,TR,AS,large_airport,38.2924,27.157
GZP,Gazipaşa-Alanya Airport,Gazipaşa,gazipasa,TR,AS,medium_airport,36.299217,32.300598
BDT,Gbadolite Airport,Gbadolite,gbadolite,CD,AF,medium_airport,4.252745,20.975271
GDN,Gdańsk Lech Wałęsa Airport,Gdańsk,gdansk,PL,EU,large_airport,54.377602,18.4662
GDZ,Gelendzhik Airport,Gelendzhik,gelendzhik,RU,EU,medium_airport,44.5820926295,38.0124807358
GMA,Gemena Airport,Gemena,gemena,CD,AF,medium_airport,3.23537,19.771299
GES,General Santos International Airport,General Santos,general santos,PH,AS,large_airport,6.057208,125.096243
GVA,Geneva Cointrin International Airport,Geneva,geneva,CH,EU,large_airport,46.238098,6.10895
GOA,Genoa Cristoforo Colombo Airport,Genova (GE),genova (ge),IT,EU,large_airport,44.412039,8.840732
GRJ,George Airport,George,george,ZA,AF,large_airport,-34.0056,22.378902
GCM,Owen Roberts International Airport,George Town,george town,KY,NA,large_airport,19.292801,-81.357697
GEO,Cheddi Jagan International Airport,Georgetown,georgetown,GY,SA,large_airport,6.49855,-58.254101
MNI,John A. Osborne Airport,Gerald's Park,gerald's park,MS,NA,large_airport,16.791835,-62.193204
LTD,Ghadames Airport,Ghadames,ghadames,LY,AF,medium_airport,30.145484,9.702095
GHT,Ghat Airport,Ghat,ghat,LY,AF,medium_airport,25.1455993652,10.142600059500001
GIB,Gibraltar Airport,Gibraltar,gibraltar,GI,EU,large_airport,36.151679,-5.34978
GIL,Gilgit Airport,Gilgit,gilgit,PK,AS,medium_airport,35.918800354003906,74.33360290527344
GCC,Northeast Wyoming Regional Airport,Gillette,gillette,US,NA,medium_airport,44.3489,-105.539001
GRO,Girona-Costa Brava Airport,Girona,girona,ES,AF,large_airport,41.904639,2.761774
GIS,Gisborne Airport,Gisborne,gisborne,NZ,OC,medium_airport,-38.6633,177.977997
GID,Gitega Airport,Gitega,gitega,BI,AF,medium_airport,-3.417209,29.911308
GLT,Gladstone Airport,Gladstone,gladstone,AU,OC,medium_airport,-23.869763,151.225439
GLA,Glasgow Airport,Glasgow,glasgow,GB,EU,large_airport,55.871899,-4.43306
GDV,Dawson Community Airport,Glendive,glendive,US,NA,medium_airport,47.137658,-104.80691
GDE,Gode Airport,Gode,gode,ET,AF,medium_airport,5.93513011932,43.5786018372
GYN,Santa Genoveva International Airport,Goiânia,goiania,BR,SA,large_airport,-16.632,-49.220699
ETZ,Metz-Nancy-Lorraine Airport,Goin,goin,FR,EU,medium_airport,48.982101,6.25132
OOL,Gold Coast Airport,Gold Coast,gold coast,AU,OC,large_airport,-28.165962,153.506641
GLF,Golfito Airport,Golfito,golfito,CR,NA,medium_airport,8.65401,-83.182198
GOQ,Golmud Airport,Golmud,golmud,CN,AS,medium_airport,36.4006,94.786102
GMQ,Golog Maqên Airport,Golog (Maqên),golog (maqen),CN,AS,medium_airport,34.418066,100.301144
GOM,Goma International Airport,Goma,goma,CD,AF,large_airport,-1.666758,29.238037
GMO,Gombe Lawanti International Airport,Gombe,gombe,NG,AF,medium_airport,10.298889,10.9
GME,Gomel Airport,Gomel,gomel,BY,EU,medium_airport,52.527000427246094,31.016700744628906
GDB,Gondia Airport,Gondia,gondia,IN,AS,medium_airport,21.526817,80.290347
YNY,Yangyang International Airport,Gonghang-ro,gonghang-ro,KR,AS,large_airport,38.060481,128.669822
YYR,Goose Bay Airport,Goose Bay,goose bay,CA,NA,medium_airport,53.3191986084,-60.4258003235
GOP,Gorakhpur Airport,Gorakhpur,gorakhpur,IN,AS,medium_airport,26.739700317399997,83.4496994019
BWK,Brač Airport,Gornji Humac,gornji humac,HR,EU,medium_airport,43.284454,16.678362
GKA,Goroka Airport,Goronka,goronka,PG,OC,medium_airport,-6.081689834590001,145.391998291
GOT,Göteborg Landvetter Airport,Göteborg,goteborg,SE,EU,large_airport,57.6628,12.2798
FUJ,Fukue Airport,Goto,goto,JP,AS,medium_airport,32.666302,128.832993
GVR,Coronel Altino Machado Airport,Governador Valadares,governador valadares,BR,SA,medium_airport,-18.895882,-41.982869
PLZ,Chief Dawid Stuurman International Airport,Gqeberha (Port Elizabeth),gqeberha (port elizabeth),ZA,AF,large_airport,-33.989715,25.617353
LGG,Liège Airport,Grâce-Hollogne,grace-hollogne,BE,EU,medium_airport,50.638574,5.443897
LPA,Gran Canaria Airport,Gran Canaria Island,gran canaria island,ES,AF,large_airport,27.9319,-15.3866
GRX,F.G.L. Airport Granada-Jaén Airport,Granada,granada,ES,EU,medium_airport,37.188702,-3.77736
GCN,Grand Canyon National Park Airport,Grand Canyon - Tusayan,grand canyon - tusayan,US,NA,medium_airport,35.9524,-112.147003
SFG,Grand Case-l'Espérance Airport,Grand Case,grand case,MF,NA,medium_airport,18.100057,-63.047444
GFK,Grand Forks International Airport,Grand Forks,grand forks,US,NA,medium_airport,47.949299,-97.176102
GRI,Central Nebraska Regional Airport,Grand Island,grand island,US,NA,medium_airport,40.967498779296875,-98.30960083007812
GJT,Grand Junction Regional Airport,Grand Junction,grand junction,US,NA,medium_airport,39.126663,-108.529387
GRR,Gerald R. Ford International Airport,Grand Rapids,grand rapids,US,NA,large_airport,42.880798,-85.522797
GBJ,Marie-Galante Airport,Grand-Bourg,grand-bourg,GP,NA,medium_airport,15.868925,-61.270087
YQU,Grande Prairie Airport,Grande Prairie,grande prairie,CA,NA,medium_airport,55.1796989441,-118.885002136
YQA,Muskoka Airport,Gravenhurst,gravenhurst,CA,NA,medium_airport,44.975376,-79.306546
GTF,Great Falls International Airport,Great Falls,great falls,US,NA,medium_airport,47.481998,-111.371002
GRB,Austin Straubel International Airport,Green Bay,green bay,US,NA,medium_airport,44.483459,-88.130805
GSO,Piedmont Triad International Airport,Greensboro,greensboro,US,NA,large_airport,36.09937,-79.937262
GLH,Mid Delta Regional Airport,Greenville,greenville,US,NA,medium_airport,33.482899,-90.985603
GSP,Greenville-Spartanburg International Airport,Greenville/Greer/Spartanburg,greenville/greer/spartanburg,US,NA,medium_airport,34.895699,-82.218903
GNB,Grenoble Alpes Isère Airport,Grenoble,grenoble,FR,EU,medium_airport,45.3629,5.32937
FMO,Münster Osnabrück Airport,Greven,greven,DE,EU,large_airport,52.133816,7.688482
GFF,Griffith Airport,Griffith,griffith,AU,OC,medium_airport,-34.2508010864,146.067001343
HUY,Humberside Airport,"Grimsby, Lincolnshire","grimsby, lincolnshire",GB,EU,medium_airport,53.576152,-0.34954
GRY,Grímsey Airport,Grímsey/Sandvík,grimsey/sandvik,IS,EU,medium_airport,66.5458,-18.0173
GRQ,Groningen Airport Eelde,Groningen,groningen,NL,EU,large_airport,53.119107,6.577652
GTE,Groote Eylandt Airport,Groote Eylandt,groote eylandt,AU,OC,medium_airport,-13.972405,136.458553
GRV,Akhmat Kadyrov Grozny International Airport,Grozny,grozny,RU,AS,large_airport,43.388106,45.699772
GDL,Guadalajara International Airport,Guadalajara,guadalajara,MX,NA,large_airport,20.523342,-103.310108
GJA,La Laguna Airport,Guanaja,guanaja,HN,NA,medium_airport,16.4454,-85.906601
GYS,Guangyuan Panlong Airport,Guangyuan (Lizhou),guangyuan (lizhou),CN,AS,medium_airport,32.390254,105.694571
CAN,Guangzhou Baiyun International Airport,Guangzhou,guangzhou,CN,AS,large_airport,23.392401,113.299004
GPI,Guapi Airport,Guapi,guapi,CO,SA,medium_airport,2.57013,-77.897969
GUA,La Aurora International Airport,Guatemala City,guatemala city,GT,NA,large_airport,14.582896,-90.527515
GYE,José Joaquín de Olmedo International Airport,Guayaquil,guayaquil,EC,SA,large_airport,-2.15742,-79.883598
GYA,Guayaramerín Airport,Guayaramerín,guayaramerin,BO,SA,medium_airport,-10.88856,-65.380955
GYM,General José María Yáñez International Airport,Guaymas,guaymas,MX,NA,medium_airport,27.9689998626709,-110.92500305175781
ELU,Guemar Airport - مطار قمار بالوادي,Guemar,guemar,DZ,AF,medium_airport,33.511398,6.77679
KWL,Guilin Liangjiang International Airport,Guilin (Lingui),guilin (lingui),CN,AS,large_airport,25.219828,110.039553
KWE,Guiyang Longdongbao International Airport,Guiyang (Nanming),guiyang (nanming),CN,AS,large_airport,26.541805,106.80402
GPT,Gulfport Biloxi International Airport,Gulfport,gulfport,US,NA,medium_airport,30.405582,-89.069836
GKN,Gulkana Airport,Gulkana,gulkana,US,NA,medium_airport,62.155859,-145.454662
ULU,Gulu Airport,Gulu,gulu,UG,AF,medium_airport,2.8055601119995117,32.27180099487305
GUC,Gunnison Crested Butte Regional Airport,Gunnison,gunnison,US,NA,medium_airport,38.534672,-106.934566
KUV,Gunsan Airport / Gunsan Air Base,Gunsan,gunsan,KR,AS,medium_airport,35.903801,126.615997
GNS,Binaka Airport,Gunungsitoli,gunungsitoli,ID,AS,medium_airport,1.16628,97.704327
GWD,New Gwadar International Airport,Gurandani,gurandani,PK,AS,large_airport,25.296733,62.498822
URY,Gurayat Domestic Airport,Gurayat,gurayat,SA,AS,medium_airport,31.412413,37.278898
GUR,Gurney Airport,Gurney,gurney,PG,OC,medium_airport,-10.3114995956,150.333999634
SBH,St. Jean Airport,Gustavia,gustavia,BL,NA,medium_airport,17.904398,-62.843333
GST,Gustavus Airport,Gustavus,gustavus,US,NA,medium_airport,58.4253006,-135.7070007
GAU,Lokpriya Gopinath Bordoloi International Airport,Guwahati,guwahati,IN,AS,large_airport,26.106654,91.585226
PZO,General Manuel Carlos Piar International Airport,Guyana City,guyana city,VE,SA,large_airport,8.28853,-62.760399
GYU,Guyuan Liupanshan Airport,Guyuan (Yuanzhou),guyuan (yuanzhou),CN,AS,medium_airport,36.078889,106.216944
HEA,Herat - Khwaja Abdullah Ansari International Airport,Guzara,guzara,AF,AS,large_airport,34.209999,62.228298
GWL,Gwalior Airport,Gwalior,gwalior,IN,AS,medium_airport,26.29330062866211,78.22779846191406
KWJ,Gwangju Airport,Gwangju,gwangju,KR,AS,medium_airport,35.123173,126.805444
MQT,Marquette/Sawyer International Airport,Gwinn,gwinn,US,NA,medium_airport,46.351498,-87.395884
QGY,Győr-Pér Airport,Győr,gyor,HU,EU,medium_airport,47.628436,17.804718
LWN,Shirak International Airport,Gyumri,gyumri,AM,AS,large_airport,40.750401,43.859299
HAS,Ha'il Airport,Ha'il,ha'il,SA,AS,medium_airport,27.437901,41.686298
HAQ,Hanimaadhoo International Airport,Haa Dhaalu Atoll,haa dhaalu atoll,MV,AS,large_airport,6.743235,73.167072
HAC,Hachijojima Airport,Hachijojima,hachijojima,JP,AS,medium_airport,33.114843,139.785645
SKN,"Stokmarknes Airport, Skagen",Hadsel,hadsel,NO,EU,medium_airport,68.578827,15.033417
GUM,Antonio B. Won Pat International Airport,Hagåtña,hagatna,GU,OC,large_airport,13.485,144.797282
HGR,Hagerstown Regional Richard A Henson Field,Hagerstown,hagerstown,US,NA,medium_airport,39.708771,-77.728014
XNN,Xining Caojiabao International Airport,Haidong (Huzhu Tu Autonomous County),haidong (huzhu tu autonomous county),CN,AS,large_airport,36.52775,102.040215
HFA,Uri Michaeli Haifa International Airport,Haifa,haifa,IL,AS,medium_airport,32.810219,35.043719
HAK,Haikou Meilan International Airport,Haikou (Meilan),haikou (meilan),CN,AS,large_airport,19.9349,110.459
HLD,Hulunbuir Hailar Airport,Hailar,hailar,CN,AS,large_airport,49.208616,119.822301
SUN,Friedman Memorial Airport,Hailey,hailey,US,NA,medium_airport,43.50439835,-114.2959976
HNS,Haines Airport,Haines,haines,US,NA,medium_airport,59.243921,-135.523925
HPH,Cat Bi International Airport,Haiphong (Hai An),haiphong (hai an),VN,AS,large_airport,20.817428,106.724315
YKO,Hakkari Yüksekova Airport,Hakkari,hakkari,TR,AS,medium_airport,37.5497,44.2381
HKD,Hakodate Airport,Hakodate,hakodate,JP,AS,large_airport,41.77,140.822006
YHZ,Halifax / Stanfield International Airport,Halifax,halifax,CA,NA,large_airport,44.8807983398,-63.5085983276
HAD,Halmstad Airport,Halmstad,halmstad,SE,EU,medium_airport,56.69110107421875,12.820199966430664
HWR,Halwara International Airport,Halwara,halwara,IN,AS,large_airport,30.748501,75.629799
HDM,Hamadan Airport,Hamadan,hamadan,IR,AS,medium_airport,34.869202,48.552502
HAM,Hamburg Helmut Schmidt Airport,Hamburg,hamburg,DE,EU,large_airport,53.630402,9.98823
HMI,Hami Airport,Hami,hami,CN,AS,medium_airport,42.8414,93.669197
YHM,John C. Munro Hamilton International Airport,Hamilton,hamilton,CA,NA,medium_airport,43.17348,-79.931185
HTI,Hamilton Island Airport,Hamilton Island,hamilton island,AU,OC,medium_airport,-20.3581008911,148.95199585
HFT,Hammerfest Airport,Hammerfest,hammerfest,NO,EU,medium_airport,70.679703,23.6686
HNM,Hana Airport,Hana,hana,US,OC,medium_airport,20.795601,-156.014008
RSI,Red Sea International Airport,Hanak,hanak,SA,AS,large_airport,25.627975,37.088914
HNA,Iwate Hanamaki Airport,Hanamaki,hanamaki,JP,AS,medium_airport,39.4286,141.134995
CMX,Houghton County Memorial Airport,Hancock,hancock,US,NA,medium_airport,47.168399810791016,-88.48909759521484
HDG,Handan Airport,Handan,handan,CN,AS,medium_airport,36.524824,114.424126
HGH,Hangzhou Xiaoshan International Airport,Hangzhou,hangzhou,CN,AS,large_airport,30.23609,120.428865
HAJ,Hannover Airport,Hannover,hannover,DE,EU,large_airport,52.461102,9.68508
HAN,Noi Bai International Airport,Hanoi,hanoi,VN,AS,large_airport,21.221201,105.806999
HZG,Hanzhong Chenggu Airport,Hanzhong (Chenggu),hanzhong (chenggu),CN,AS,medium_airport,33.133527,107.203817
HRE,Robert Gabriel Mugabe International Airport,Harare,harare,ZW,AF,large_airport,-17.931801,31.0928
HRB,Harbin Taiping International Airport,Harbin,harbin,CN,AS,large_airport,45.623402,126.25
HGA,Egal International Airport,Hargeisa,hargeisa,SO,AF,large_airport,9.514082,44.083469
HRL,Valley International Airport,Harlingen,harlingen,US,NA,medium_airport,26.228500366210938,-97.65440368652344
MDT,Harrisburg International Airport,Harrisburg,harrisburg,US,NA,medium_airport,40.192838,-76.762333
HRO,Boone County Airport,Harrison,harrison,US,NA,medium_airport,36.26150131225586,-93.15470123291016
BDL,Bradley International Airport,Hartford,hartford,US,NA,large_airport,41.938555,-72.688016
HME,Hassi Messaoud-Oued Irara Krim Belkacem Airport,Hassi Messaoud,hassi messaoud,DZ,AF,medium_airport,31.673,6.14044
HDY,Hat Yai International Airport,Hat Yai,hat yai,TH,AS,large_airport,6.93321,100.392998
HAV,José Martí International Airport,Havana,havana,CU,NA,large_airport,22.989200592041016,-82.40910339355469
HVR,Havre City County Airport,Havre,havre,US,NA,medium_airport,48.541387,-109.762859
YGV,Havre-Saint-Pierre Airport,Havre-Saint-Pierre,havre-saint-pierre,CA,NA,medium_airport,50.281898,-63.611401
AWA,Hawassa International Airport,Hawassa,hawassa,ET,AF,large_airport,7.100611,38.396455
HHR,Jack Northrop Field Hawthorne Municipal Airport,Hawthorne,hawthorne,US,NA,medium_airport,33.922798,-118.334999
YHY,Hay River / Merlyn Carter Airport,Hay River,hay river,CA,NA,medium_airport,60.8396987915,-115.782997131
HDN,Yampa Valley Airport,Hayden,hayden,US,NA,medium_airport,40.481201,-107.218002
HYS,Hays Regional Airport,Hays,hays,US,NA,medium_airport,38.844521,-99.273148
HCJ,Hechi Jinchengjiang Airport,Hechi (Jinchengjiang),hechi (jinchengjiang),CN,AS,medium_airport,24.804344,107.710819
HFE,Hefei Xinqiao International Airport,Hefei,hefei,CN,AS,large_airport,31.98779,116.9769
HEH,Heho Airport,Heho,heho,MM,AS,medium_airport,20.74714,96.792029
DTU,Wudalianchi Dedu Airport,Heihe,heihe,CN,AS,medium_airport,48.441037,126.128374
HLN,Helena Regional Airport,Helena,helena,US,NA,medium_airport,46.6068,-111.983002
HEL,Helsinki Vantaa Airport,Helsinki,helsinki,FI,EU,large_airport,60.318363,24.963341
HER,Heraklion International Nikos Kazantzakis Airport,Heraklion,heraklion,GR,EU,large_airport,35.339699,25.1803
HMO,General Ignacio L. Pesqueira International Airport,Hermosillo,hermosillo,MX,NA,large_airport,29.092811,-111.053015
HVB,Hervey Bay Airport,Hervey Bay,hervey bay,AU,OC,medium_airport,-25.320127,152.880662
HZA,Heze Mudan Airport,Heze (Dingtao),heze (dingtao),CN,AS,medium_airport,35.212972,115.736748
HIB,Range Regional Airport,Hibbing,hibbing,US,NA,medium_airport,47.384831,-92.836905
AKJ,Asahikawa Airport,Higashikagura,higashikagura,JP,AS,medium_airport,43.670799,142.447006
GAJ,Yamagata Airport,Higashine,higashine,JP,AS,medium_airport,38.4119,140.371002
YOJ,High Level Airport,High Level,high level,CA,NA,medium_airport,58.62139892578125,-117.16500091552734
ITO,Hilo International Airport,Hilo,hilo,US,OC,medium_airport,19.72135,-155.045428
HHH,Hilton Head Airport,Hilton Head Island,hilton head island,US,NA,medium_airport,32.2244,-80.697502
HIJ,Hiroshima Airport,Hiroshima,hiroshima,JP,AS,large_airport,34.4361,132.919006
HSS,Maharaja Agrasen International Airport,Hisar,hisar,IN,AS,large_airport,29.186065,75.74142
AUQ,Hiva Oa-Atuona Airport,Hiva Oa Island,hiva oa island,PF,OC,medium_airport,-9.76879024506,-139.011001587
SGN,Tan Son Nhat International Airport,Ho Chi Minh City,ho chi minh city,VN,AS,large_airport,10.8188,106.652
HBA,Hobart International Airport,Hobart (Cambridge),hobart (cambridge),AU,OC,large_airport,-42.837032,147.513022
HOB,Lea County Regional Airport,Hobbs,hobbs,US,NA,medium_airport,32.6875,-103.217003
HDS,Eastgate Airport / Air Force Base Hoedspruit,Hoedspruit,hoedspruit,ZA,AF,medium_airport,-24.361864,31.052921
RGO,Orang (Chongjin) Airport,Hoemun-ri,hoemun-ri,KP,AS,medium_airport,41.428538,129.647555
HFN,Hornafjörður Airport,Höfn,hofn,IS,EU,medium_airport,64.295601,-15.2272
HOF,Al-Ahsa International Airport,Hofuf,hofuf,SA,AS,large_airport,25.285299,49.485199
HET,Hohhot Baita International Airport,Hohhot,hohhot,CN,AS,large_airport,40.849658,111.824598
HOG,Frank Pais International Airport,Holguin,holguin,CU,NA,large_airport,20.785148,-76.315526
HUO,Holingol Huolinhe Airport,Holingol,holingol,CN,AS,medium_airport,45.487222,119.407222
HGI,Itanagar Donyi Polo Hollongi Airport,Hollongi,hollongi,IN,AS,medium_airport,26.96683,93.638792
HCR,Holy Cross Airport,Holy Cross,holy cross,US,NA,medium_airport,62.18830108642578,-159.77499389648438
HOM,Homer Airport,Homer,homer,US,NA,medium_airport,59.644456,-151.479235
EAS,San Sebastián Airport,Hondarribia,hondarribia,ES,EU,medium_airport,43.356499,-1.79061
